ANO_BO,NUM_BO,BO_EMITIDO,DATAOCORRENCIA,HORAOCORRENCIA,PERIDOOCORRENCIA,DATACOMUNICACAO,BO_AUTORIA,FLAGRANTE,LOGRADOURO,NUMERO,BAIRRO,CIDADE,LATITUDE,LONGITUDE,DESCRICAOLOCAL,SOLUCAO,DELEGACIA_NOME,DELEGACIA_CIRCUNSCRICAO,ESPECIE,RUBRICA,STATUS,PLACA_VEICULO,UF_VEICULO,CIDADE_VEICULO,DESCR_COR_VEICULO,ANO_FABRICACAO,ANO_MODELO,DESCR_TIPO_VEICULO,MARCA,MODELO,DIA,MES,HORA,DIA_SEMANA,FAIXA_DIA_MES
2023,298,01/02/2023 00:00,2023-01-31,1900-01-01 20:30:00,A NOITE,31/01/2023,Desconhecida,Não,,0.0,JARDIM RESIDENCIAL RAVAGNANI,SUMARE,,,Residência,ENCAMINHAMENTO DP ÁREA DO FATO,DEL.POL.PLANTÃO SUMARE,01º D.P. SUMARE,Título II - Patrimônio (arts. 155 a 183),Roubo (art. 157) - VEICULO,Consumado,ENZ6E37,SP,SUMARE,Prata,2020.0,2020.0,AUTOMOVEL,FORD,KA SE 1.0 HA C,31,1,20.0,Tuesday,
2023,170256,01/02/2023 00:06,2023-01-31,1900-01-01 21:20:00,A NOITE,31/01/2023,Desconhecida,Não,AVENIDA BRASIL,403.0,PARQUE DAS NAÇÕES,S.ANDRE,-23.6391693,-46.52067314,Via pública,BO PARA INVESTIGAÇÃO,DELEGACIA ELETRONICA,02º D.P. SANTO ANDRÉ,Título II - Patrimônio (arts. 155 a 183),Roubo (art. 157) - VEICULO,Consumado,ELO9643,SP,S.ANDRE,Branco,2018.0,,AUTOMOVEL,VW,POLO MF,31,1,21.0,Tuesday,
2023,131,01/02/2023 00:29,2023-01-31,1900-01-01 19:20:00,A NOITE,01/02/2023,Desconhecida,Não,Rua Bernardino de Pinho Gomes,99.0,JARDIM SAO FRANCISCO,CUBATAO,-23.8873564,-46.4180081,Via pública,ENCAMINHAMENTO DP ÁREA DO FATO,DEL.POL.CUBATÃO,DEL.POL.CUBATÃO,Título II - Patrimônio (arts. 155 a 183),Roubo (art. 157) - VEICULO,Consumado,RML3J64,MG,S.GONCALO RIO ABAIXO,Branco,,,AUTOMOVEL,VW,GOL 1.0L MC4,31,1,19.0,Tuesday,
2023,170325,01/02/2023 00:59,2023-01-31,1900-01-01 22:20:00,A NOITE,31/01/2023,Desconhecida,Não,RUA CANHOBA,674.0,PERUS,S.PAULO,-23.40694755,-46.74239546,Outros,BO PARA INVESTIGAÇÃO,DELEGACIA ELETRONICA,46º D.P. PERUS,Título II - Patrimônio (arts. 155 a 183),Roubo (art. 157) - VEICULO,Consumado,FGI0816,SP,S.PAULO,Vermelho,2013.0,,AUTOMOVEL,CHEVROLET,ONIX 1.4MT LT,31,1,22.0,Tuesday,
2023,218,01/02/2023 01:09,2023-01-31,1900-01-01 21:30:00,A NOITE,01/02/2023,Desconhecida,Não,Estrada do Baygton,200.0,LOTEAMENTO VALE FLORIDO,EMBU-GUACU,-23.9009139,-46.8660661,Via pública,APRECIAÇÃO DO DELEGADO TITULAR,DEL.POL.EMBU-GUAÇU,DEL.POL.EMBU-GUAÇU,Título II - Patrimônio (arts. 155 a 183),Roubo (art. 157) - VEICULO,Consumado,GBJ6A34,SP,EMBU-GUACU,Vermelho,2018.0,2019.0,AUTOMOVEL,TOYOTA,YARIS HB XLS15 AT,31,1,21.0,Tuesday,
2023,170346,01/02/2023 01:14,2023-01-31,1900-01-01 21:10:00,A NOITE,01/02/2023,Desconhecida,Não,AVENIDA SEBASTIÃO CURY,500.0,PQ FIGUEIRA,CAMPINAS,-22.94034006,-47.06735833,Via pública,BO PARA INVESTIGAÇÃO,DELEGACIA ELETRONICA,05º D.P. CAMPINAS,Título II - Patrimônio (arts. 155 a 183),Roubo (art. 157) - VEICULO,Consumado,EOX4H48,SP,CAMPINAS,Azul,2010.0,,MOTOCICLO,HONDA,CB 300R,31,1,21.0,Tuesday,
2023,985,01/02/2023 01:34,2023-01-31,1900-01-01 20:14:00,A NOITE,01/02/2023,Desconhecida,Não,Rua Ismael Cardona,100.0,CONJUNTO HABITACIONAL SANTA ETELVINA III,S.PAULO,-23.5856505,-46.4125915,Via pública,ENCAMINHAMENTO DP ÁREA DO FATO,49º D.P. SAO MATEUS,54º D.P. CID. TIRADENTES,Título II - Patrimônio (arts. 155 a 183),Roubo (art. 157) - VEICULO,Consumado,FDK8C46,SP,S.PAULO,Vermelho,2022.0,2023.0,MOTOCICLO,HONDA,CG 160 FAN,31,1,20.0,Tuesday,
2023,453,01/02/2023 02:31,2023-01-31,1900-01-01 21:34:00,A NOITE,01/02/2023,Desconhecida,Não,RUA DAS PALMEIRAS,241.0,SANTA CECILIA,S.PAULO,-23.53650987,-46.65235469,Estacionamento com vigilância,ENCAMINHAMENTO DP ÁREA DO FATO,02º D.P. BOM RETIRO,77º D.P. SANTA CECILIA,Título II - Patrimônio (arts. 155 a 183),Roubo (art. 157) - VEICULO,Consumado,CLT6H56,SP,S.PAULO,Preta,2022.0,2023.0,CAMINHONETE,MMC,TRITON SPORT GLS AT,31,1,21.0,Tuesday,
2023,571,01/02/2023 02:43,2023-01-31,1900-01-01 23:35:00,A NOITE,01/02/2023,Desconhecida,Não,RUA ACHAIRA,288.0,JARDIM ANGELA,S.PAULO,-23.69753437,-46.79372893,Via pública,BO PARA INVESTIGAÇÃO,47º D.P. CAPAO REDONDO,47º D.P. CAPAO REDONDO,Título II - Patrimônio (arts. 155 a 183),Roubo (art. 157) - VEICULO,Consumado,EFK8J35,SP,S.PAULO,Cinza,2008.0,2008.0,MOTOCICLO,HONDA,CG 125 FAN,31,1,23.0,Tuesday,
2023,210,01/02/2023 02:54,2023-01-31,1900-01-01 20:20:00,A NOITE,01/02/2023,Desconhecida,Não,RODOVIA SP 191,1.0,AREA RURAL,BOTUCATU,-22.68210709,-48.25628685,Via pública,ENCAMINHAMENTO DP ÁREA DO FATO,DEL.SEC.BOTUCATU,04º D.P. BOTUCATU,Título II - Patrimônio (arts. 155 a 183),Roubo (art. 157) - VEICULO,Consumado,RBF4D03,ES,CACHOEIRO ITAPEMIRIM,Preta,2021.0,2022.0,SEMI-REBOQUE,REB,RANDON SR CA,31,1,20.0,Tuesday,
2023,170534,01/02/2023 03:22,2023-01-31,1900-01-01 23:30:00,A NOITE,01/02/2023,Desconhecida,Não,Rua Antônio Sanches Lopes,1383.0,JARDIM ACLIMACAO (NOVA VENEZA),SUMARE,-22.8457643,-47.1705212,Via pública,BO PARA INVESTIGAÇÃO,DELEGACIA ELETRONICA,05º D.P. SUMARE,Título II - Patrimônio (arts. 155 a 183),Roubo (art. 157) - VEICULO,Consumado,FTL4G34,SP,SUMARE,Preta,2020.0,,MOTOCICLO,YAMAHA,FZ25 FAZER,31,1,23.0,Tuesday,
2023,797,01/02/2023 03:37,2023-01-31,1900-01-01 23:40:00,A NOITE,01/02/2023,Desconhecida,Não,RUA NOSSA SENHORA DO BOM CONSELHO,443.0,CAMPO LIMPO,S.PAULO,-23.64211721,-46.75872009,Via pública,ENCAMINHAMENTO DP ÁREA DO FATO,89º D.P. JARDIM TABOAO,37º D.P. CAMPO LIMPO,Título II - Patrimônio (arts. 155 a 183),Roubo (art. 157) - VEICULO,Consumado,RUA7G69,MG,BELO HORIZONTE,Cinza,2022.0,2022.0,AUTOMOVEL,FIAT,ARGO DRIVE 1.0,31,1,23.0,Tuesday,
2023,352,01/02/2023 05:33,2023-01-02,1900-01-01 00:30:00,DE MADRUGADA,01/02/2023,Desconhecida,Não,AVENIDA JOSÉ ALVES DE OLIVEIRA,100.0,PARQUE INDUSTRIAL,JUNDIAI,-23.16723043,-47.00521364,Via pública,ENCAMINHAMENTO DP ÁREA DO FATO,PLANTÃO - 01º D.P. JUNDIAI,05º D.P. JUNDIAI,Título II - Patrimônio (arts. 155 a 183),Roubo (art. 157) - VEICULO,Consumado,RTM0523,MG,BELO HORIZONTE,Branco,2021.0,2022.0,AUTOMOVEL,HYUNDAI,HB20 10M EVOLUTI,2,1,0.0,Monday,1-5
2023,356,01/02/2023 07:12,2023-01-31,1900-01-01 19:00:00,A NOITE,01/02/2023,Desconhecida,Não,RUA COMENDADOR ANTÔNIO BENVENUTO BATÁGLI,27.0,BAIRRO SANTA MARIA,S.ANDRE,-23.64766155,-46.55320234,Via pública,ENCAMINHAMENTO DP ÁREA DO FATO,DEL.POL.S.CAETANO DO SUL,04º D.P. SANTO ANDRÉ,Título II - Patrimônio (arts. 155 a 183),Roubo (art. 157) - VEICULO,Consumado,ELO8838,SP,S.CAETANO DO SUL,Branco,2018.0,2019.0,MOTOCICLO,TRIUMPH,TIGER 800 XR,31,1,19.0,Tuesday,
2023,599,01/02/2023 07:19,2023-01-02,1900-01-01 01:15:00,DE MADRUGADA,01/02/2023,Desconhecida,Não,ESTRADA DO ALVARENGA,5100.0,PEDREIRA,S.PAULO,-23.6939197,-46.65697999,Via pública,BO PARA INVESTIGAÇÃO,98º D.P. JARDIM MIRIAM,98º D.P. JARDIM MIRIAM,Título II - Patrimônio (arts. 155 a 183),Roubo (art. 157) - VEICULO,Consumado,FYN5D78,SP,CAIEIRAS,Prata,2015.0,2016.0,AUTOMOVEL,NISSAN,VERSA 16 SL,2,1,1.0,Monday,1-5
2023,171740,01/02/2023 08:50,2023-01-02,1900-01-01 05:40:00,DE MADRUGADA,01/02/2023,Desconhecida,Não,AVENIDA DOM JOÃO VI,1450.0,TABOAO,DIADEMA,-23.66903349,-46.60778873,Via pública,BO PARA INVESTIGAÇÃO,DELEGACIA ELETRONICA,03º D.P. DIADEMA,Título II - Patrimônio (arts. 155 a 183),Roubo (art. 157) - VEICULO,Consumado,FJB6H78,SP,S.ANDRE,Azul,2018.0,,MOTOCICLO,YAMAHA,MT03 ABS,2,1,5.0,Monday,1-5
2023,1105,01/02/2023 08:55,2023-01-02,1900-01-01 07:30:00,PELA MANHÃ,01/02/2023,Desconhecida,Não,Avenida Governador Mário Covas,10.0,IPIRANGA,RIBEIRAO PRETO,-21.1312773,-47.8039595,Via pública,BO PARA INVESTIGAÇÃO,CPJ RIBEIRAO PRETO,05º D.P. RIBEIRAO PRETO,Título II - Patrimônio (arts. 155 a 183),Roubo (art. 157) - VEICULO,Consumado,FFD9I87,SP,RIBEIRAO PRETO,Vermelho,2012.0,2013.0,MOTONETA,HONDA,BIZ 125 EX,2,1,7.0,Monday,1-5
2023,317,01/02/2023 09:15,2023-01-02,,PELA MANHÃ,01/02/2023,Desconhecida,Não,RUA DO TUCURA,1000.0,CENTRO,MOGI MIRIM,-22.42783159,-46.95467042,Via pública,APRECIAÇÃO DO DELEGADO TITULAR,DEL.POL.MOGI-MIRIM,DEL.POL.MOGI-MIRIM,Título II - Patrimônio (arts. 155 a 183),Roubo (art. 157) - VEICULO,Consumado,FQA4606,SP,MOGI MIRIM,Verde,2013.0,2014.0,MOTOCICLO,KAWASAKI,ER-6N ABS,2,1,,Monday,1-5
2023,351,01/02/2023 09:20,2023-01-31,1900-01-01 23:00:00,A NOITE,01/02/2023,Desconhecida,Não,Rua Antônio Carlos Tôrres,186.0,PARQUE MARABA,TABOAO DA SERRA,-23.6266042,-46.7770748,Via pública,APRECIAÇÃO DO DELEGADO TITULAR,01º D.P. TABOÃO DA SERRA,01º D.P. TABOÃO DA SERRA,Título II - Patrimônio (arts. 155 a 183),Roubo (art. 157) - VEICULO,Consumado,FKG2A72,SP,TABOAO DA SERRA,Preta,2021.0,2021.0,MOTOCICLO,BMW,F750 GS,31,1,23.0,Tuesday,
2023,390,01/02/2023 09:25,2023-01-31,1900-01-01 16:30:00,A TARDE,01/02/2023,Desconhecida,Não,RUA SANTA MADALENA,121.0,CANHEMA,DIADEMA,-23.67491125,-46.60566837,Via pública,APRECIAÇÃO DO DELEGADO TITULAR,03º D.P. DIADEMA,03º D.P. DIADEMA,Título II - Patrimônio (arts. 155 a 183),Roubo (art. 157) - VEICULO,Consumado,FLD0790,SP,DIADEMA,Branco,2013.0,2014.0,AUTOMOVEL,HYUNDAI,HB20X 1.6M STYLE,31,1,16.0,Tuesday,
2023,604,01/02/2023 09:30,2023-01-02,1900-01-01 06:40:00,PELA MANHÃ,01/02/2023,Desconhecida,Não,Avenida Anhanguera,250.0,VILA REAL,HORTOLANDIA,-22.856393,-47.2161668,Via pública,ENCAMINHAMENTO DP ÁREA DO FATO,DEL.POL.PLANTÃO HORTOLÂNDIA,DEL.POL.HORTOLÂNDIA,Título II - Patrimônio (arts. 155 a 183),Roubo (art. 157) - VEICULO,Consumado,FGW0B34,SP,SUMARE,Preta,2013.0,2014.0,MOTOCICLO,HONDA,CG 125 FAN KS,2,1,6.0,Monday,1-5
2023,171872,01/02/2023 09:31,2023-01-31,1900-01-01 21:25:00,A NOITE,01/02/2023,Desconhecida,Não,RUA FARIDE G. PÍMENTEL,79.0,VILA CRETI,CARAPICUIBA,-23.52949286,-46.8391771,Via pública,BO PARA INVESTIGAÇÃO,DELEGACIA ELETRONICA,01º D.P. CARAPICUIBA,Título II - Patrimônio (arts. 155 a 183),Roubo (art. 157) - VEICULO,Consumado,FVP2D45,SP,CARAPICUIBA,Vermelho,2022.0,,MOTOCICLO,HONDA,CG 160 START,31,1,21.0,Tuesday,
2023,318,01/02/2023 09:50,2023-01-02,,PELA MANHÃ,01/02/2023,Desconhecida,Não,RUA DO TUCURA,1000.0,CENTRO,MOGI MIRIM,-22.42783159,-46.95467042,Via pública,APRECIAÇÃO DO DELEGADO TITULAR,DEL.POL.MOGI-MIRIM,DEL.POL.MOGI-MIRIM,Título II - Patrimônio (arts. 155 a 183),Roubo (art. 157) - VEICULO,Consumado,FQA4606,SP,MOGI MIRIM,Verde,2013.0,2014.0,MOTOCICLO,KAWASAKI,ER-6N ABS,2,1,,Monday,1-5
2023,154407,01/02/2023 10:10,2023-01-18,1900-01-01 19:40:00,A NOITE,18/01/2023,Desconhecida,Não,Avenida Julinha,1401.0,CALIFÓRNIA,ITANHAEM,-24.2234732,-46.8791111,Via pública,BO PARA INVESTIGAÇÃO,DELEGACIA ELETRONICA,02º D.P. ITANHAEM,Título II - Patrimônio (arts. 155 a 183),Roubo (art. 157) - VEICULO,Consumado,DXK3I89,SP,ITANHAEM,Preta,2008.0,,MOTOCICLO,HONDA,NX-4 FALCON,18,1,19.0,Wednesday,16-20
2023,568,01/02/2023 10:15,2023-01-30,1900-01-01 19:00:00,A NOITE,01/02/2023,Desconhecida,Não,ESTRADA DAS MULATAS,485.0,GLEBA 1,COTIA,-23.64421392,-46.97050467,Via pública,BO PARA INVESTIGAÇÃO,DEL.POL.COTIA,01º D.P. COTIA,Título II - Patrimônio (arts. 155 a 183),Roubo (art. 157) - VEICULO,Consumado,FRH2J48,SP,S.PAULO,Vermelho,2021.0,2021.0,MOTOCICLO,HONDA,CB 500F,30,1,19.0,Monday,26-31
2023,246,01/02/2023 10:32,2021-06-19,1900-01-01 05:37:00,DE MADRUGADA,01/02/2023,Conhecida,Não,Rua Agostinho Lopes dos Santos,100.0,DISTRITO INDUSTRIAL,CAMPINAS,-22.9935889,-47.1223594,Via pública,BO PARA INVESTIGAÇÃO,09º D.P. CAMPINAS,09º D.P. CAMPINAS,Título II - Patrimônio (arts. 155 a 183),Roubo (art. 157) - VEICULO,Consumado,EIO3230,SP,CAMPINAS,Vermelho,2019.0,2019.0,MOTOCICLO,HONDA,CG 160 FAN,19,6,5.0,Saturday,16-20
2023,194,01/02/2023 10:32,2023-01-30,1900-01-01 18:00:00,A NOITE,01/02/2023,Desconhecida,Não,RODOVIA RODOANEL TRECHO OESTE,0.0,JD SANTA CECILIA,OSASCO,-23.51637746,-46.81569717,Via pública,ENCAMINHAMENTO DP ÁREA DO FATO,103º D.P. COHABII/ITAQU.,02º D.P. BARUERI,Título II - Patrimônio (arts. 155 a 183),Roubo (art. 157) - VEICULO,Consumado,RTO9B25,MG,BELO HORIZONTE,Branco,2021.0,,CAMINHÃO,I,FIAT DUCATO CHASSI L,30,1,18.0,Monday,26-31
2023,601,01/02/2023 10:33,2023-01-23,1900-01-01 19:20:00,A NOITE,01/02/2023,Desconhecida,Não,RUA LUIS DE MONTALVOR,50.0,CIDADE ADEMAR,S.PAULO,-23.67105327,-46.64575336,Via pública,ENCAMINHAMENTO DP ÁREA DO FATO,98º D.P. JARDIM MIRIAM,97º D.P. AMERICANOPOLIS,Título II - Patrimônio (arts. 155 a 183),Roubo (art. 157) - VEICULO,Consumado,FCR7E44,SP,S.PAULO,Branco,2014.0,2014.0,MOTOCICLO,YAMAHA,FAZER YS250,23,1,19.0,Monday,21-25
2023,228,01/02/2023 11:07,2023-01-31,1900-01-01 13:00:00,A TARDE,31/01/2023,Desconhecida,Não,RUA HERCULANIA,20.0,CAMBUCI,S.PAULO,-23.57258252,-46.6165978,Via pública,APRECIAÇÃO DO DELEGADO TITULAR,06º D.P. CAMBUCI,06º D.P. CAMBUCI,Título II - Patrimônio (arts. 155 a 183),Roubo (art. 157) - VEICULO,Consumado,FAG3E92,SP,S.PAULO,Cinza,2022.0,2022.0,AUTOMOVEL,VW,T CROSS TSI,31,1,13.0,Tuesday,
2023,222,01/02/2023 11:10,2023-01-31,1900-01-01 20:10:00,A NOITE,01/02/2023,Desconhecida,Não,RUA CABRÁLIA,216.0,VILA HELENA,S.ANDRE,-23.6820381,-46.51356528,Via pública,APRECIAÇÃO DO DELEGADO TITULAR,03º D.P. SANTO ANDRÉ,03º D.P. SANTO ANDRÉ,Título II - Patrimônio (arts. 155 a 183),Roubo (art. 157) - VEICULO,Consumado,GBP9F64,SP,S.PAULO,Branco,2022.0,2022.0,AUTOMOVEL,HYUNDAI,HB20S 10M VISION,31,1,20.0,Tuesday,
2023,172452,01/02/2023 11:16,2023-01-02,1900-01-01 08:25:00,PELA MANHÃ,01/02/2023,Desconhecida,Não,RUA JACUÍ,126.0,VILA ASSUNÇÃO,S.ANDRE,-23.68223378,-46.52563471,Via pública,BO PARA INVESTIGAÇÃO,DELEGACIA ELETRONICA,03º D.P. SANTO ANDRÉ,Título II - Patrimônio (arts. 155 a 183),Roubo (art. 157) - VEICULO,Consumado,FMY1F85,SP,S.ANDRE,Cinza,2017.0,,AUTOMOVEL,I,NISSAN KICKS SL CVT,2,1,8.0,Monday,1-5
2023,225,01/02/2023 11:34,2023-01-02,1900-01-01 07:10:00,PELA MANHÃ,01/02/2023,Desconhecida,Não,RUA BAURU,84.0,JARDIM PROGRESSO,S.ANDRE,-23.68872108,-46.52278175,Via pública,APRECIAÇÃO DO DELEGADO TITULAR,03º D.P. SANTO ANDRÉ,03º D.P. SANTO ANDRÉ,Título II - Patrimônio (arts. 155 a 183),Roubo (art. 157) - VEICULO,Consumado,QKW7D59,SP,S.ANDRE,Vermelho,2016.0,2017.0,AUTOMOVEL,I,NISSAN SENTRA 20SV CVT,2,1,7.0,Monday,1-5
2023,934,01/02/2023 11:42,2023-01-02,1900-01-01 08:50:00,PELA MANHÃ,01/02/2023,Desconhecida,Não,Estrada Municipal Said Barakat,34.0,PIRACANGAGUÁ,TAUBATE,-23.0873599,-45.5863489,Via pública,APRECIAÇÃO DO DELEGADO TITULAR,DEL.SEC.TAUBATE PLANTÃO,03º D.P. TAUBATE,Título II - Patrimônio (arts. 155 a 183),Roubo (art. 157) - VEICULO,Consumado,KZP0I72,SP,TAUBATE,Preta,2007.0,2008.0,AUTOMOVEL,TOYOTA,COROLA SEG18FLEX,2,1,8.0,Monday,1-5
2023,588,01/02/2023 11:43,2023-01-31,1900-01-01 12:00:00,PELA MANHÃ,01/02/2023,Desconhecida,Não,RUA LOPES DE MEDEIROS,255.0,PARQUE DO CARMO,S.PAULO,-23.57303906,-46.4833688,Via pública,APRECIAÇÃO DO DELEGADO TITULAR,53º D.P. PARQUE DO CARMO,53º D.P. PARQUE DO CARMO,Título II - Patrimônio (arts. 155 a 183),Roubo (art. 157) - VEICULO,Consumado,QYI2J74,SP,FERRAZ DE VASCONCELO,Branco,2019.0,2019.0,CAMINHONETE,I,FIAT DUCATO CARGO 8,31,1,12.0,Tuesday,
2023,172700,01/02/2023 11:55,2023-01-29,1900-01-01 22:35:00,A NOITE,01/02/2023,Desconhecida,Não,Avenida dos Funcionários Públicos,110.0,VILA DO SOL,S.PAULO,,,Via pública,BO PARA INVESTIGAÇÃO,DELEGACIA ELETRONICA,100º D.P. JDIM HERCULANO,Título II - Patrimônio (arts. 155 a 183),Roubo (art. 157) - VEICULO,Consumado,FUI6I29,SP,S.PAULO,Branco,2017.0,,MOTOCICLO,HONDA,CG 160 FAN,29,1,22.0,Sunday,26-31
2023,172758,01/02/2023 12:07,2023-01-31,1900-01-01 23:10:00,A NOITE,01/02/2023,Desconhecida,Não,AVENIDA DOUTOR CUSTODIO DE LIMA,451.0,VILA JACUI,S.PAULO,-23.4944189,-46.45585346,Via pública,BO PARA INVESTIGAÇÃO,DELEGACIA ELETRONICA,63º D.P. VILA JACUI,Título II - Patrimônio (arts. 155 a 183),Roubo (art. 157) - VEICULO,Consumado,FMJ8J81,SP,S.PAULO,Azul,2020.0,,MOTOCICLO,YAMAHA,NMAX 160,31,1,23.0,Tuesday,
2023,265,01/02/2023 12:08,2023-01-23,1900-01-01 13:30:00,A TARDE,01/02/2023,Desconhecida,Não,RUA COSME E DAMIÃO,72.0,JARDIM ANA MARIA,S.ANDRE,-23.62699174,-46.4867894,Via pública,ENCAMINHAMENTO DP ÁREA DO FATO,70º D.P. VILA EMA,05º D.P. SANTO ANDRÉ,Título II - Patrimônio (arts. 155 a 183),Roubo (art. 157) - VEICULO,Consumado,DZQ2E58,SP,S.PAULO,Prata,2007.0,2008.0,MOTONETA,JTA,SUZUKI AN125,23,1,13.0,Monday,21-25
2023,745,01/02/2023 12:37,2023-01-30,1900-01-01 21:51:00,A NOITE,01/02/2023,Desconhecida,Não,,0.0,SAUDE,S.PAULO,,,Residência,APRECIAÇÃO DO DELEGADO TITULAR,16º D.P. VILA CLEMENTINO,16º D.P. VILA CLEMENTINO,Título II - Patrimônio (arts. 155 a 183),Roubo (art. 157) - VEICULO,Consumado,BRQ5733,SP,S.PAULO,Azul,2018.0,2019.0,AUTOMOVEL,HONDA,HR-V EX CVT,30,1,21.0,Monday,26-31
2023,102,01/02/2023 13:12,2023-01-02,1900-01-01 08:50:00,PELA MANHÃ,01/02/2023,Desconhecida,Não,ESTRADA DO GUINZA,0.0,JD ADORA,SUZANO,-23.62831257,-46.30404281,Via pública,BO PARA INVESTIGAÇÃO,01º D.P. SUZANO,01º D.P. SUZANO,Título II - Patrimônio (arts. 155 a 183),Roubo (art. 157) - VEICULO,Consumado,FCS5023,SP,SUZANO,Prata,2018.0,2019.0,AUTOMOVEL,TOYOTA,ETIOS SD XPLUS AT,2,1,8.0,Monday,1-5
2023,268,01/02/2023 13:39,2022-10-18,1900-01-01 06:30:00,PELA MANHÃ,18/10/2022,Desconhecida,Não,Avenida General Motors,0.0,TABOÃO,MOGI DAS CRUZES,-23.4390587,-46.2559663,Via pública,ENCAMINHAMENTO DP ÁREA DO FATO,DEL.POL.ARUJA,03º D.P. MOGI DAS CRUZES,Título II - Patrimônio (arts. 155 a 183),Roubo (art. 157) - VEICULO,Consumado,GEQ4E98,SP,ITAPOLIS,Branco,2020.0,2021.0,CAMINHÃO,M.BENZ,ATEGO 2426,18,10,6.0,Tuesday,16-20
2023,173279,01/02/2023 13:55,2023-01-24,1900-01-01 21:00:00,A NOITE,01/02/2023,Desconhecida,Não,ESTRADA AGUA SANTA,410.0,PEDREIRA,S.PAULO,-23.70644087,-46.62709958,Via pública,BO PARA INVESTIGAÇÃO,DELEGACIA ELETRONICA,98º D.P. JARDIM MIRIAM,Título II - Patrimônio (arts. 155 a 183),Roubo (art. 157) - VEICULO,Consumado,LPH8G32,SP,DIADEMA,Preta,2008.0,,MOTOCICLO,HONDA,CB600F HORNET,24,1,21.0,Tuesday,21-25
2023,173305,01/02/2023 14:03,2023-01-22,1900-01-01 20:05:00,A NOITE,01/02/2023,Desconhecida,Não,RUA JERONIMO DIAS RIBEIRO,318.0,GUAIANASES,S.PAULO,-23.56181977,-46.39986112,Via pública,BO PARA INVESTIGAÇÃO,DELEGACIA ELETRONICA,44º D.P. GUAIANAZES,Título II - Patrimônio (arts. 155 a 183),Roubo (art. 157) - VEICULO,Consumado,GEM5G07,SP,S.PAULO,Vermelho,2021.0,,MOTOCICLO,YAMAHA,YBR150 FACTOR ED,22,1,20.0,Sunday,21-25
2023,253,01/02/2023 14:04,2023-01-31,1900-01-01 11:00:00,PELA MANHÃ,01/02/2023,Desconhecida,Não,Rua dos Imigrantes,1.0,CASA GRANDE,DIADEMA,-23.7075133,-46.6023833,Veículo em movimento,ENCAMINHAMENTO DP ÁREA DO FATO,28º D.P. FREGUESIA DO O,02º D.P. DIADEMA,Título II - Patrimônio (arts. 155 a 183),Roubo (art. 157) - VEICULO,Consumado,ELQ4A57,BA,GOVERN. MANGABEIRA,Branco,2011.0,2011.0,CAMINHÃO,VW,24.250 CNC 6X2,31,1,11.0,Tuesday,
2023,173349,01/02/2023 14:16,2023-01-28,1900-01-01 09:00:00,PELA MANHÃ,01/02/2023,Desconhecida,Não,Estrada Municipal Professora Olívia Aleg,1762.0,CACAPAVA,CACAPAVA,-23.0970538,-45.6820687,Via pública,BO PARA INVESTIGAÇÃO,DELEGACIA ELETRONICA,DEL.POL.CAÇAPAVA,Título II - Patrimônio (arts. 155 a 183),Roubo (art. 157) - VEICULO,Consumado,FGT9I74,SP,CACAPAVA,Branco,2013.0,,MOTOCICLO,HONDA,CBR 600F,28,1,9.0,Saturday,26-31
2023,173449,01/02/2023 16:18,2023-01-30,1900-01-01 00:40:00,DE MADRUGADA,01/02/2023,Desconhecida,Não,RUA ERERE,388.0,VILA CURUCA,S.PAULO,-23.50203029,-46.42393692,Via pública,BO PARA INVESTIGAÇÃO,DELEGACIA ELETRONICA,22º D.P. SAO MIGUEL PTA,Título II - Patrimônio (arts. 155 a 183),Roubo (art. 157) - VEICULO,Consumado,DRX9825,SP,S.PAULO,Prata,2006.0,,MOTOCICLO,HONDA,CG 150 TITAN KS,30,1,0.0,Monday,26-31
2023,173483,01/02/2023 16:22,2023-01-02,1900-01-01 12:30:00,A TARDE,01/02/2023,Desconhecida,Não,RUA CENTO E VINTE E UM,394.0,CABUÇU,GUARULHOS,-23.42146788,-46.55791994,Via pública,BO PARA INVESTIGAÇÃO,DELEGACIA ELETRONICA,02º D.P. GUARULHOS,Título II - Patrimônio (arts. 155 a 183),Roubo (art. 157) - VEICULO,Consumado,MPX2A84,SP,GUARULHOS,Branco,2004.0,,AUTOMOVEL,FIAT,FIORINO IE,2,1,12.0,Monday,1-5
2023,493,01/02/2023 16:26,2023-01-31,1900-01-01 16:30:00,A TARDE,31/01/2023,Desconhecida,Não,Rodovia Santos Dumont,65.0,PARQUE VIRACOPOS,CAMPINAS,-23.008205,-47.1375685,Via pública,APRECIAÇÃO DO DELEGADO TITULAR,DEL.POL.PLANTÃO INDAIATUBA,09º D.P. CAMPINAS,Título II - Patrimônio (arts. 155 a 183),Roubo (art. 157) - VEICULO,Consumado,FCF2579,SP,INDAIATUBA,Azul,2016.0,2017.0,MOTOCICLO,YAMAHA,XTZ250 TENERE,31,1,16.0,Tuesday,
2023,92,01/02/2023 16:32,2023-01-02,1900-01-01 06:15:00,PELA MANHÃ,01/02/2023,Desconhecida,Não,RUA WILIAM TOMÉ,202.0,RESIDENCIAL DI NAPOLI II,CERQUILHO,-23.17194706,-47.75274608,Via pública,APRECIAÇÃO DO DELEGADO TITULAR,DEL.POL.CERQUILHO,DEL.POL.CERQUILHO,Título II - Patrimônio (arts. 155 a 183),Roubo (art. 157) - VEICULO,Consumado,DUR9994,SP,S.JOSE DOS CAMPOS,Branco,2019.0,2019.0,AUTOMOVEL,VW,VIRTUS CL AD,2,1,6.0,Monday,1-5
2023,749,01/02/2023 16:44,2023-01-17,1900-01-01 02:15:00,DE MADRUGADA,01/02/2023,Desconhecida,Não,Avenida Senador Casemiro da Rocha,1153.0,MIRANDÓPOLIS,S.PAULO,-23.6078298,-46.6411192,Via pública,APRECIAÇÃO DO DELEGADO TITULAR,16º D.P. VILA CLEMENTINO,16º D.P. VILA CLEMENTINO,Título II - Patrimônio (arts. 155 a 183),Roubo (art. 157) - VEICULO,Consumado,RUM8A66,MG,BELO HORIZONTE,Vermelho,2022.0,2022.0,AUTOMOVEL,CITROEN,C4CACTUS FEEL AT,17,1,2.0,Tuesday,16-20
2023,221,01/02/2023 16:46,2023-01-02,1900-01-01 13:40:00,A TARDE,01/02/2023,Desconhecida,Não,ESTRADA PEDREIRA ALVARENGA,1300.0,PEDREIRA,DIADEMA,-23.71609482,-46.6261135,Via pública,BO PARA INVESTIGAÇÃO,04º D.P. DIADEMA,98º D.P. JARDIM MIRIAM,Título II - Patrimônio (arts. 155 a 183),Roubo (art. 157) - VEICULO,Consumado,GBR9317,SP,S.PAULO,Vermelho,2018.0,2018.0,AUTOMOVEL,FORD,KA SE 1.0 HA B,2,1,13.0,Monday,1-5
2023,164,01/02/2023 16:48,2023-01-02,1900-01-01 08:30:00,PELA MANHÃ,01/02/2023,Desconhecida,Não,AVENIDA BRAÚNA,28.0,PQ RESID JORDANESIA,CAJAMAR,-23.34145937,-46.82464615,Via pública,BO PARA INVESTIGAÇÃO,DEL.POL.CAJAMAR,DEL.POL.CAJAMAR,Título II - Patrimônio (arts. 155 a 183),Roubo (art. 157) - VEICULO,Consumado,RBA6A52,ES,S.MARIA DE JETIBA,Preta,2020.0,2020.0,REBOQUE,REB,RANDON SR CA,2,1,8.0,Monday,1-5
2023,163,01/02/2023 16:58,2022-10-12,1900-01-01 20:30:00,A NOITE,12/12/2022,Desconhecida,Não,,0.0,PARELHEIROS,EMBU-GUACU,,,Residência,BO PARA INVESTIGAÇÃO,25º D.P. PARELHEIROS,25º D.P. PARELHEIROS,Título II - Patrimônio (arts. 155 a 183),Roubo (art. 157) - VEICULO,Consumado,EFU4960,SP,CAIEIRAS,Branco,2009.0,2009.0,CAMINHÃO,VW,31.260 E,12,10,20.0,Wednesday,11-15
2023,173911,01/02/2023 17:10,2023-01-02,1900-01-01 10:00:00,PELA MANHÃ,01/02/2023,Desconhecida,Não,Rua José Mauro Mendonça,191.0,PARQUE DOROTEIA,S.PAULO,-23.6975847,-46.6365121,Via pública,BO PARA INVESTIGAÇÃO,DELEGACIA ELETRONICA,98º D.P. JARDIM MIRIAM,Título II - Patrimônio (arts. 155 a 183),Roubo (art. 157) - VEICULO,Consumado,FIW5269,SP,S.PAULO,Vermelho,2018.0,,MOTOCICLO,HONDA,CG 160 FAN,2,1,10.0,Monday,1-5
2023,173482,01/02/2023 17:12,2023-01-02,1900-01-01 12:00:00,PELA MANHÃ,01/02/2023,Desconhecida,Não,AVENIDA IMPÉRIO DO SOL NASCENTE,795.0,JD SÃO BENTO,CAMPINAS,,,Via pública,BO PARA INVESTIGAÇÃO,DELEGACIA ELETRONICA,03º D.P. CAMPINAS,Título II - Patrimônio (arts. 155 a 183),Roubo (art. 157) - VEICULO,Consumado,FBY6387,SP,CAMPINAS,Prata,2015.0,,AUTOMOVEL,I,TOYOTA HILUX SW4 4X2SR,2,1,12.0,Monday,1-5
2023,154857,01/02/2023 17:20,2022-12-22,1900-01-01 21:00:00,A NOITE,27/01/2023,Desconhecida,Não,Avenida Jacu-Pêssego,2000.0,ITAQUERA,S.PAULO,,,Veículo em movimento,BO PARA INVESTIGAÇÃO,DELEGACIA ELETRONICA,32º D.P. ITAQUERA,Título II - Patrimônio (arts. 155 a 183),Roubo (art. 157) - VEICULO,Consumado,GGW9E69,SP,GUARULHOS,Vermelho,2017.0,,MOTOCICLO,HONDA,CG 160 TITAN,22,12,21.0,Thursday,21-25
2023,3,01/02/2023 18:13,2023-01-02,1900-01-01 17:10:00,A TARDE,01/02/2023,Desconhecida,Não,RUA PAULO RODRIGUES,100.0,SAUDE,S.PAULO,-23.61743616,-46.63769008,Via pública,ENCAMINHAMENTO DP ÁREA DO FATO,01º DEL.CRIME C/FAZENDA,16º D.P. VILA CLEMENTINO,Título II - Patrimônio (arts. 155 a 183),Roubo (art. 157) - VEICULO,Consumado,GKG5G54,SP,TAGUAI,Preta,2019.0,2020.0,CAMINHONETE,I,VW AMAROK V6 HIGH AC4,2,1,17.0,Monday,1-5
2023,202,01/02/2023 18:57,2023-01-31,1900-01-01 10:30:00,PELA MANHÃ,01/02/2023,Desconhecida,Não,RUA SERRA DA QUEIMADA,212.0,LAJEADO,S.PAULO,-23.52834441,-46.41131028,Via pública,ENCAMINHAMENTO DP ÁREA DO FATO,103º D.P. COHABII/ITAQU.,68º D.P. LAGEADO,Título II - Patrimônio (arts. 155 a 183),Roubo (art. 157) - VEICULO,Consumado,EFA1483,SP,S.PAULO,Preta,2008.0,2008.0,AUTOMOVEL,FORD,FIESTA SEDAN FLEX,31,1,10.0,Tuesday,
2023,114,01/02/2023 19:02,2023-01-02,1900-01-01 09:00:00,PELA MANHÃ,01/02/2023,Desconhecida,Não,Rua Santa Marcelina,177.0,VILA CARMOSINA,S.PAULO,-23.55661,-46.4600268,Via pública,ENCAMINHAMENTO DP ÁREA DO FATO,DEL.POL.BIRITIBA MIRIM,53º D.P. PARQUE DO CARMO,Título II - Patrimônio (arts. 155 a 183),Roubo (art. 157) - VEICULO,Consumado,CRT6C35,SP,BIRITIBA-MIRIM,Branco,2022.0,2022.0,MICRO-ONIBUS,I,M.BENZ 416 RR MO,2,1,9.0,Monday,1-5
2023,174993,01/02/2023 19:12,2023-01-02,1900-01-01 12:05:00,A TARDE,01/02/2023,Desconhecida,Não,RUA PRESIDENTE BERNARDES,75.0,ELDORADO,DIADEMA,-23.7244872,-46.61615371,Outros,BO PARA INVESTIGAÇÃO,DELEGACIA ELETRONICA,04º D.P. DIADEMA,Título II - Patrimônio (arts. 155 a 183),Roubo (art. 157) - VEICULO,Consumado,FMW2G28,SP,DIADEMA,Azul,2013.0,,AUTOMOVEL,CHEVROLET,ONIX 1.0MT LT,2,1,12.0,Monday,1-5
2023,17999,01/02/2023 19:20,2022-12-28,1900-01-01 20:58:00,A NOITE,30/12/2022,Desconhecida,Não,RUA DEUS DO SOL,11.0,ITAPEGICA,GUARULHOS,,,Via pública,ENCAMINHAMENTO DP ÁREA DO FATO,DELEGACIA ELETRONICA 2,05º D.P. GUARULHOS,Título II - Patrimônio (arts. 155 a 183),Roubo (art. 157) - VEICULO,Consumado,FQG7D98,SP,S.PAULO,Prata,2013.0,,AUTOMOVEL,I,NISSAN SENTRA 20SV CVT,28,12,20.0,Wednesday,26-31
2023,299,01/02/2023 19:47,2023-01-02,1900-01-01 16:30:00,A TARDE,01/02/2023,Desconhecida,Não,ESTRADA MUNICIPAL NORMA MARSOM BIONDO,1.0,CHACARA CRUZEIRO DO SUL,SUMARE,-22.8838155,-47.30453007,Via pública,ENCAMINHAMENTO DP ÁREA DO FATO,DEL.POL.PLANTÃO SUMARE,01º D.P. SUMARE,Título II - Patrimônio (arts. 155 a 183),Roubo (art. 157) - VEICULO,Consumado,FVP7C41,SP,SUMARE,Vermelho,2021.0,2021.0,MOTOCICLO,HONDA,NXR160 BROS ESDD,2,1,16.0,Monday,1-5
2023,383,01/02/2023 20:24,2023-01-02,,A NOITE,01/02/2023,Desconhecida,Não,AV. BRASIL,0.0,JD. EUROPA,CAMPO LIMPO PAULISTA,-23.2062325,-46.7850185,Via pública,APRECIAÇÃO DO DELEGADO TITULAR,DEL.POL.CAMPO LIMPO PAULISTA,DEL.POL.CAMPO LIMPO PAULISTA,Título II - Patrimônio (arts. 155 a 183),Roubo (art. 157) - VEICULO,Consumado,FGD1J38,SP,CAMPO LIMPO PAULISTA,Prata,2021.0,2021.0,MOTOCICLO,HONDA,CB250F TWISTER CBS,2,1,,Monday,1-5
2023,175361,01/02/2023 21:05,2023-01-02,1900-01-01 18:20:00,A NOITE,01/02/2023,Desconhecida,Não,Avenida Camucim,380.0,PARQUE UNIVERSITÁRIO DE VIRACOPOS,CAMPINAS,,,Via pública,BO PARA INVESTIGAÇÃO,DELEGACIA ELETRONICA,09º D.P. CAMPINAS,Título II - Patrimônio (arts. 155 a 183),Roubo (art. 157) - VEICULO,Consumado,CPG8399,SP,CAMPINAS,Cinza,2019.0,,MOTOCICLO,HONDA,CG 160 FAN,2,1,18.0,Monday,1-5
2023,379,01/02/2023 22:13,2023-01-02,1900-01-01 20:20:00,A NOITE,01/02/2023,Desconhecida,Não,RUA HAITI,245.0,PARQUE DAS NAÇÕES,S.ANDRE,-23.63708533,-46.51216742,Via pública,BO PARA INVESTIGAÇÃO,02º D.P. SANTO ANDRÉ,02º D.P. SANTO ANDRÉ,Título II - Patrimônio (arts. 155 a 183),Roubo (art. 157) - VEICULO,Consumado,GGT1C49,SP,GUARULHOS,Azul,2020.0,2021.0,MOTOCICLO,HONDA,CG 160 TITAN,2,1,20.0,Monday,1-5
2023,175442,01/02/2023 22:17,2023-01-31,1900-01-01 07:50:00,PELA MANHÃ,01/02/2023,Desconhecida,Não,Estrada João Pannocchia Molina,414.0,SÃO JOÃO,GUARULHOS,-23.4124303,-46.4617356,Garagem coletiva de prédio,BO PARA INVESTIGAÇÃO,DELEGACIA ELETRONICA,07º D.P. GUARULHOS,Título II - Patrimônio (arts. 155 a 183),Roubo (art. 157) - VEICULO,Consumado,DKU4I32,SP,GUARULHOS,Preta,,,MOTOCICLO,H,HONDA 180,31,1,7.0,Tuesday,
2023,175448,01/02/2023 22:30,2023-01-02,1900-01-01 19:20:00,A NOITE,01/02/2023,Desconhecida,Não,RUA JURAMENTO,294.0,BONSUCESSO,GUARULHOS,-23.43433009,-46.41575153,Via pública,BO PARA INVESTIGAÇÃO,DELEGACIA ELETRONICA,04º D.P. GUARULHOS,Título II - Patrimônio (arts. 155 a 183),Roubo (art. 157) - VEICULO,Consumado,ELC4H51,SP,GUARULHOS,Preta,2010.0,,AUTOMOVEL,VW,FOX 1.0 GII,2,1,19.0,Monday,1-5
2023,175450,01/02/2023 22:37,2023-01-02,1900-01-01 18:35:00,A NOITE,01/02/2023,Desconhecida,Não,Rua Nilo Bruzzi,31.0,JARDIM SHANGRILA (ZONA NORTE),S.PAULO,-23.4226019,-46.7246078,Via pública,BO PARA INVESTIGAÇÃO,DELEGACIA ELETRONICA,46º D.P. PERUS,Título II - Patrimônio (arts. 155 a 183),Roubo (art. 157) - VEICULO,Consumado,FAW1539,SP,S.PAULO,Prata,2018.0,,,FORD,KA SE 1.0 HA C,2,1,18.0,Monday,1-5
2023,175457,01/02/2023 22:51,2023-01-02,1900-01-01 18:00:00,A NOITE,01/02/2023,Desconhecida,Não,Rua Anoriaçu,1.0,JARDIM MODELO,S.PAULO,,,Via pública,BO PARA INVESTIGAÇÃO,DELEGACIA ELETRONICA,73º D.P. JACANA,Título II - Patrimônio (arts. 155 a 183),Roubo (art. 157) - VEICULO,Consumado,GGX4H69,SP,GUARULHOS,Branco,2016.0,,AUTOMOVEL,FIAT,FIORINO 1.4 FLEX,2,1,18.0,Monday,1-5
2023,175459,01/02/2023 22:56,2023-01-31,1900-01-01 23:45:00,A NOITE,01/02/2023,Desconhecida,Não,Rua Gibraltar,180.0,SANTO AMARO,S.PAULO,-23.6466986,-46.7157737,Via pública,BO PARA INVESTIGAÇÃO,DELEGACIA ELETRONICA,11º D.P. SANTO AMARO,Título II - Patrimônio (arts. 155 a 183),Roubo (art. 157) - VEICULO,Consumado,FWG1A25,SP,GUARULHOS,Preta,2014.0,,AUTOMOVEL,NISSAN,MARCH 16SV,31,1,23.0,Tuesday,
2023,175466,01/02/2023 23:08,2023-01-31,1900-01-01 19:15:00,A NOITE,01/02/2023,Desconhecida,Não,Rua Pedrália,80.0,CURSINO,S.PAULO,-23.6032974,-46.6180103,Via pública,BO PARA INVESTIGAÇÃO,DELEGACIA ELETRONICA,16º D.P. VILA CLEMENTINO,Título II - Patrimônio (arts. 155 a 183),Roubo (art. 157) - VEICULO,Consumado,GJN7A85,SP,S.BERNARDO DO CAMPO,Azul,2022.0,,AUTOMOVEL,VW,T CROSS HL TSI AE,31,1,19.0,Tuesday,
2023,175476,01/02/2023 23:14,2023-01-02,1900-01-01 18:30:00,A NOITE,01/02/2023,Desconhecida,Não,Rua Antônio Ferraz de Arruda,309.0,PARQUE PRIMEIRO DE MAIO,PIRACICABA,-22.7557043,-47.6276186,Via pública,BO PARA INVESTIGAÇÃO,DELEGACIA ELETRONICA,02º D.P. PIRACICABA,Título II - Patrimônio (arts. 155 a 183),Roubo (art. 157) - VEICULO,Consumado,FAF6A62,SP,PIRACICABA,Marrom,2022.0,,MOTOCICLO,HONDA,BIZ 125,2,1,18.0,Monday,1-5
2023,511,01/02/2023 23:17,2023-01-02,1900-01-01 18:20:00,A NOITE,01/02/2023,Desconhecida,Não,AVENIDA DOS ESTADOS,8000.0,PARQUE CAPUAVA,S.ANDRE,-23.64842027,-46.48902632,Via pública,ENCAMINHAMENTO DP ÁREA DO FATO,01º DP MAUA-DR.ALFREDO GARBINO,05º D.P. SANTO ANDRÉ,Título II - Patrimônio (arts. 155 a 183),Roubo (art. 157) - VEICULO,Consumado,SHB8C07,MG,BELO HORIZONTE,Branco,2022.0,2023.0,AUTOMOVEL,FIAT,ARGO 1.0,2,1,18.0,Monday,1-5
2023,175486,01/02/2023 23:25,2023-01-30,1900-01-01 22:50:00,A NOITE,01/02/2023,Desconhecida,Não,Rua Francisco Cordelli,120.0,CIDADE SÃO MATEUS,S.PAULO,-23.607198,-46.4815643,Via pública,BO PARA INVESTIGAÇÃO,DELEGACIA ELETRONICA,69º D.P. TEOTONIO VILELA,Título II - Patrimônio (arts. 155 a 183),Roubo (art. 157) - VEICULO,Consumado,GBX8G48,SP,S.PAULO,Vermelho,2017.0,,MOTOCICLO,HONDA,CG 160 START,30,1,22.0,Monday,26-31
2023,34906,01/02/2023 23:50,2023-01-27,1900-01-01 03:00:00,DE MADRUGADA,01/02/2023,Desconhecida,Não,RUA LUIS DE SOUSA,122.0,GUAIANASES,S.PAULO,-23.55552955,-46.41554064,Via pública,ENCAMINHAMENTO DP ÁREA DO FATO,DELEGACIA ELETRONICA 1,44º D.P. GUAIANAZES,Título II - Patrimônio (arts. 155 a 183),Roubo (art. 157) - VEICULO,Consumado,GEQ4J05,SP,S.PAULO,Azul,2022.0,,MOTOCICLO,HONDA,CG 160 START,27,1,3.0,Friday,26-31
2023,175512,01/02/2023 23:50,2023-01-02,1900-01-01 20:00:00,A NOITE,01/02/2023,Desconhecida,Não,RUA DAS GUASSATUNGAS,239.0,JABAQUARA,S.PAULO,-23.65548573,-46.64485844,Via pública,BO PARA INVESTIGAÇÃO,DELEGACIA ELETRONICA,97º D.P. AMERICANOPOLIS,Título II - Patrimônio (arts. 155 a 183),Roubo (art. 157) - VEICULO,Consumado,EVI7715,SP,S.PAULO,Preta,2011.0,,AUTOMOVEL,I,PEUGEOT 408 FELINE,2,1,20.0,Monday,1-5
2023,472,01/02/2023 23:54,2023-01-02,1900-01-01 20:00:00,A NOITE,01/02/2023,Desconhecida,Não,RUA JOAQUIM BRUGNARO,100.0,JARDIM NOVA SUICA,LIMEIRA,-22.5696826,-47.38938126,Via pública,ENCAMINHAMENTO DP ÁREA DO FATO,DEL.SEC.LIMEIRA PLANTÃO,03º D.P. LIMEIRA,Título II - Patrimônio (arts. 155 a 183),Roubo (art. 157) - VEICULO,Consumado,FDC4I85,SP,ARARAS,Prata,2022.0,2023.0,AUTOMOVEL,CHEV,ONIX PLUS 10TAT PR2,2,1,20.0,Monday,1-5
2023,175549,02/02/2023 00:08,2023-01-02,1900-01-01 19:15:00,A NOITE,01/02/2023,Desconhecida,Não,RUA ORLANDO PINTO RIBEIRO,777.0,CAMPO GRANDE,S.PAULO,-23.68275415,-46.67852579,Via pública,BO PARA INVESTIGAÇÃO,DELEGACIA ELETRONICA,80º D.P. VILA JOANIZA,Título II - Patrimônio (arts. 155 a 183),Roubo (art. 157) - VEICULO,Consumado,DUD8743,SP,S.PAULO,Cinza,2006.0,,AUTOMOVEL,I,PEUGEOT 206,2,1,19.0,Monday,1-5
2023,165,02/02/2023 01:02,2023-01-02,1900-01-01 22:00:00,A NOITE,01/02/2023,Desconhecida,Não,RUA DIANOPOLIS,1283.0,MOOCA,S.PAULO,-23.57568312,-46.59400006,Via pública,BO PARA INVESTIGAÇÃO,18º D.P. ALTO DA MOOCA,18º D.P. ALTO DA MOOCA,Título II - Patrimônio (arts. 155 a 183),Roubo (art. 157) - VEICULO,Consumado,GKF4454,SP,S.PAULO,Prata,2019.0,2019.0,AUTOMOVEL,TOYOTA,YARIS SD XL 15 AT,2,1,22.0,Monday,1-5
2023,175611,02/02/2023 01:14,2023-01-02,1900-01-01 21:50:00,A NOITE,01/02/2023,Desconhecida,Não,RUA CASTILHO,155.0,ITAIM BIBI,S.PAULO,-23.61256415,-46.69214035,Veículo em movimento,BO PARA INVESTIGAÇÃO,DELEGACIA ELETRONICA,96º D.P. MONÇÕES,Título II - Patrimônio (arts. 155 a 183),Roubo (art. 157) - VEICULO,Consumado,FZV2D21,PR,CURITIBA,Branco,2020.0,,MOTOCICLO,TRIUMPH,TIGER 900 GT PRO,2,1,21.0,Monday,1-5
2023,175621,02/02/2023 01:25,2023-01-02,1900-01-01 22:55:00,A NOITE,02/02/2023,Desconhecida,Não,ACESSO RUA BRASILEIRA,1.0,ITAPEGICA,GUARULHOS,-23.48526299,-46.55947974,Veículo em movimento,BO PARA INVESTIGAÇÃO,DELEGACIA ELETRONICA,05º D.P. GUARULHOS,Título II - Patrimônio (arts. 155 a 183),Roubo (art. 157) - VEICULO,Consumado,ECE3E94,SP,S.PAULO,Amarelo,2009.0,,MOTOCICLO,HONDA,XRE 300,2,1,22.0,Monday,1-5
2023,266,02/02/2023 01:27,2023-01-02,1900-01-01 16:00:00,A TARDE,01/02/2023,Desconhecida,Não,Avenida Eunice Cavalcante de Souza Queir,72.0,PARQUE RESIDENCIAL JUNDIAÍ,JUNDIAI,-23.1485612,-47.0075774,Via pública,ENCAMINHAMENTO DP ÁREA DO FATO,66º D.P. JDIM ARICANDUVA,05º D.P. JUNDIAI,Título II - Patrimônio (arts. 155 a 183),Roubo (art. 157) - VEICULO,Consumado,FHY6A75,MG,JANAUBA,Vermelho,2016.0,2016.0,CAMINHÃO,M.BENZ,ATEGO 2426 MAGICA,2,1,16.0,Monday,1-5
2023,175623,02/02/2023 01:28,2023-01-02,1900-01-01 23:36:00,A NOITE,02/02/2023,Desconhecida,Não,AVENIDA DAMASCENO VIEIRA,1143.0,JABAQUARA,S.PAULO,,,Via pública,BO PARA INVESTIGAÇÃO,DELEGACIA ELETRONICA,35º D.P. JABAQUARA,Título II - Patrimônio (arts. 155 a 183),Roubo (art. 157) - VEICULO,Consumado,FQR8132,SP,S.PAULO,Prata,2015.0,,AUTOMOVEL,I,CITROEN C4L A THP FFTD,2,1,23.0,Monday,1-5
2023,175625,02/02/2023 01:29,2023-01-02,1900-01-01 21:50:00,A NOITE,02/02/2023,Desconhecida,Não,Rua Lysi de Lara Lopes Diniz,380.0,JARDIM BOM RETIRO (NOVA VENEZA),SUMARE,-22.8523533,-47.1890445,Via pública,BO PARA INVESTIGAÇÃO,DELEGACIA ELETRONICA,05º D.P. SUMARE,Título II - Patrimônio (arts. 155 a 183),Roubo (art. 157) - VEICULO,Consumado,FTF4C22,SP,SUMARE,Azul,2020.0,,MOTOCICLO,HONDA,CG 160 TITAN,2,1,21.0,Monday,1-5
2023,175628,02/02/2023 01:35,2023-01-02,1900-01-01 21:25:00,A NOITE,02/02/2023,Desconhecida,Não,RUA QUINZE DE NOVEMBRO,10.0,SAO RAFAEL,S.PAULO,-23.62499568,-46.44995277,Via pública,BO PARA INVESTIGAÇÃO,DELEGACIA ELETRONICA,55º D.P. PARQUE S.RAFAEL,Título II - Patrimônio (arts. 155 a 183),Roubo (art. 157) - VEICULO,Consumado,FFS5I86,SP,S.PAULO,Cinza,2013.0,,AUTOMOVEL,I,NISSAN VERSA 16SV FLEX,2,1,21.0,Monday,1-5
2023,175633,02/02/2023 01:38,2023-01-02,1900-01-01 21:35:00,A NOITE,02/02/2023,Desconhecida,Não,Avenida Rubem Berta,599.0,INDIANÓPOLIS,S.PAULO,-23.5988367,-46.6507089,Via pública,BO PARA INVESTIGAÇÃO,DELEGACIA ELETRONICA,16º D.P. VILA CLEMENTINO,Título II - Patrimônio (arts. 155 a 183),Roubo (art. 157) - VEICULO,Consumado,GDY3H96,SP,S.PAULO,Vermelho,2022.0,,MOTOCICLO,HONDA,XRE 300 ABS,2,1,21.0,Monday,1-5
2023,175636,02/02/2023 01:42,2023-01-02,1900-01-01 19:00:00,A NOITE,02/02/2023,Desconhecida,Não,Avenida Coronel Oliveira Lima,3345.0,ALIANCA,RIBEIRAO PIRES,-23.691428,-46.4300131,Via pública,BO PARA INVESTIGAÇÃO,DELEGACIA ELETRONICA,DEL.POL.RPIRES DR.EVANDRO LIMA,Título II - Patrimônio (arts. 155 a 183),Roubo (art. 157) - VEICULO,Consumado,FUU2359,SP,MAUA,Vermelho,2017.0,,MOTOCICLO,YAMAHA,YBR150 FACTOR ED,2,1,19.0,Monday,1-5
2023,175637,02/02/2023 01:46,2023-01-02,1900-01-01 19:48:00,A NOITE,02/02/2023,Desconhecida,Não,AVENIDA SANTO AFONSO,44.0,CIDADE ADEMAR,S.PAULO,-23.67587633,-46.64247479,Via pública,BO PARA INVESTIGAÇÃO,DELEGACIA ELETRONICA,43º D.P. CIDADE ADEMAR,Título II - Patrimônio (arts. 155 a 183),Roubo (art. 157) - VEICULO,Consumado,GHK6E67,SP,S.BERNARDO DO CAMPO,Branco,2022.0,,MOTOCICLO,HONDA,PCX 150 SPORT ABS,2,1,19.0,Monday,1-5
2023,532,02/02/2023 01:49,2023-02-02,1900-01-01 00:30:00,DE MADRUGADA,02/02/2023,Desconhecida,Não,ESTRADA JOEL DE PAULA,900.0,PARQUE TECNOLÓGICO,S.JOSE DOS CAMPOS,-23.15125353,-45.78321008,Via pública,ENCAMINHAMENTO DP ÁREA DO FATO,CPJ S.JOSE DOS CAMPOS,06º D.P. S.JOSE DOS CAMPOS,Título II - Patrimônio (arts. 155 a 183),Roubo (art. 157) - VEICULO,Consumado,GJN0550,SP,MONTEIRO LOBATO,Preta,2016.0,2017.0,MOTOCICLO,HONDA,CG 160 TITAN EX,2,2,0.0,Thursday,1-5
2023,175639,02/02/2023 01:50,2023-01-02,1900-01-01 19:30:00,A NOITE,02/02/2023,Desconhecida,Não,RUA AMERICO SALVADOR NOVELLI,265.0,ITAQUERA,S.PAULO,-23.53957534,-46.45519093,Via pública,BO PARA INVESTIGAÇÃO,DELEGACIA ELETRONICA,32º D.P. ITAQUERA,Título II - Patrimônio (arts. 155 a 183),Roubo (art. 157) - VEICULO,Consumado,ONU1007,SP,S.PAULO,Branco,2014.0,,AUTOMOVEL,MMC,ASX 2.0 AWD CVT,2,1,19.0,Monday,1-5
2023,175644,02/02/2023 02:01,2023-01-02,1900-01-01 21:00:00,A NOITE,02/02/2023,Desconhecida,Não,RUA ASSIS CHATEAUBRIAND,700.0,VL ARIZONA II,ITAQUAQUECETUBA,-23.49686219,-46.35902206,Veículo em movimento,BO PARA INVESTIGAÇÃO,DELEGACIA ELETRONICA,DEL.POL.ITAQUAQUECETUBA,Título II - Patrimônio (arts. 155 a 183),Roubo (art. 157) - VEICULO,Consumado,FZP1F03,SP,POA,Branco,2016.0,,AUTOMOVEL,FIAT,MOBI LIKE,2,1,21.0,Monday,1-5
2023,175645,02/02/2023 02:07,2023-01-02,1900-01-01 20:40:00,A NOITE,02/02/2023,Desconhecida,Não,Rua Ibitirama,1220.0,VILA PRUDENTE,S.PAULO,-23.5911355,-46.5810096,Via pública,BO PARA INVESTIGAÇÃO,DELEGACIA ELETRONICA,56º D.P. VILA ALPINA,Título II - Patrimônio (arts. 155 a 183),Roubo (art. 157) - VEICULO,Consumado,EBD3005,SP,S.PAULO,Prata,2007.0,,AUTOMOVEL,FIAT,IDEA ELX FLEX,2,1,20.0,Monday,1-5
2023,1121,02/02/2023 03:11,2023-01-02,1900-01-01 20:10:00,A NOITE,02/02/2023,Desconhecida,Não,VIA ÂNGELO MIALICH,0.0,CHACARAS HIPICA,RIBEIRAO PRETO,-21.20091333,-47.72508304,Via pública,ENCAMINHAMENTO DP ÁREA DO FATO,CPJ RIBEIRAO PRETO,08º D.P. RIBEIRAO PRETO,Título II - Patrimônio (arts. 155 a 183),Roubo (art. 157) - VEICULO,Consumado,FIB0238,SP,RIBEIRAO PRETO,Preta,2012.0,2013.0,AUTOMOVEL,I,RENAULT CLIO AUT 10H3P,2,1,20.0,Monday,1-5
2023,175824,02/02/2023 06:05,2023-02-02,1900-01-01 04:09:00,DE MADRUGADA,02/02/2023,Desconhecida,Não,Avenida Ministro Evandro Lins e Silva,100.0,PARQUE CECAP,GUARULHOS,,,Via pública,BO PARA INVESTIGAÇÃO,DELEGACIA ELETRONICA,08º D.P. GUARULHOS,Título II - Patrimônio (arts. 155 a 183),Roubo (art. 157) - VEICULO,Consumado,BXZ9C67,SP,GUARULHOS,Preta,2022.0,,MOTOCICLO,HONDA,CG 160 FAN,2,2,4.0,Thursday,1-5
2023,175830,02/02/2023 06:07,2023-01-02,1900-01-01 02:40:00,DE MADRUGADA,02/02/2023,Desconhecida,Não,ESTRADA CAUCAIA DO ALTO,558.0,CHACARA BEL VERC,VARGEM GRANDE PAULISTA,-23.64486429,-46.99204271,Via pública,BO PARA INVESTIGAÇÃO,DELEGACIA ELETRONICA,DEL.POL.VARGEM GRANDE PTA,Título II - Patrimônio (arts. 155 a 183),Roubo (art. 157) - VEICULO,Consumado,EOO7E79,SP,OSASCO,Azul,2019.0,,MOTOCICLO,BMW,F850 GS,2,1,2.0,Monday,1-5
2023,282,02/02/2023 07:06,2023-02-02,1900-01-01 05:00:00,DE MADRUGADA,02/02/2023,Desconhecida,Não,Estrada do Alvarenga,2820.0,BALNEÁRIO SÃO FRANCISCO,S.PAULO,-23.697009,-46.6493163,Via pública,APRECIAÇÃO DO DELEGADO TITULAR,15º D.P. DR. LUC. H BEIGUELMAN,98º D.P. JARDIM MIRIAM,Título II - Patrimônio (arts. 155 a 183),Roubo (art. 157) - VEICULO,Consumado,GDS3159,SP,S.PAULO,Marrom,2017.0,2017.0,MOTONETA,HONDA,PCX 150 DLX,2,2,5.0,Thursday,1-5
2023,223,02/02/2023 07:39,2023-02-02,1900-01-01 06:04:00,PELA MANHÃ,02/02/2023,Desconhecida,Não,Rua Bento Pires de Moraes,24.0,JARDIM LIDIA MARIA,EMBU-GUACU,-23.8486143,-46.8207392,Via pública,BO PARA INVESTIGAÇÃO,DEL.POL.EMBU-GUAÇU,DEL.POL.EMBU-GUAÇU,Título II - Patrimônio (arts. 155 a 183),Roubo (art. 157) - VEICULO,Consumado,OQD7B69,MG,CONTAGEM,Prata,,,CAMINHONETE,IMP,TOYOTA HILUX 4X4 CD,2,2,6.0,Thursday,1-5
2023,81,02/02/2023 08:16,2023-01-30,1900-01-01 05:00:00,DE MADRUGADA,30/01/2023,Desconhecida,Não,ACESSO RODOVIA PRESIDENTE TANCREDO DE AL,54.0,CASTANHO,JUNDIAI,-23.2386949,-46.85558298,Via pública,APRECIAÇÃO DO DELEGADO TITULAR,06º D.P. JUNDIAI,06º D.P. JUNDIAI,Título II - Patrimônio (arts. 155 a 183),Roubo (art. 157) - VEICULO,Consumado,MDL8206,MG,S.SEBASTIAO MARANHAO,Preta,2005.0,2005.0,MOTOCICLO,HONDA,CG 150 SPORT,30,1,5.0,Monday,26-31
2023,176719,02/02/2023 08:23,2023-02-02,1900-01-01 02:40:00,DE MADRUGADA,02/02/2023,Desconhecida,Não,RUA DOMINGOS PEIXOTO DA SILVA,246.0,CAPAO REDONDO,S.PAULO,-23.66230828,-46.77681169,Via pública,BO PARA INVESTIGAÇÃO,DELEGACIA ELETRONICA,47º D.P. CAPAO REDONDO,Título II - Patrimônio (arts. 155 a 183),Roubo (art. 157) - VEICULO,Consumado,GGW5J16,SP,TABOAO DA SERRA,Prata,2022.0,,MOTOCICLO,HONDA,CG 160 TITAN,2,2,2.0,Thursday,1-5
2023,556,02/02/2023 08:31,2023-02-02,1900-01-01 06:40:00,PELA MANHÃ,02/02/2023,Desconhecida,Não,VIADUTO DA AVENIDA DR ROBERTO MOREIRA,1900.0,JARDIM DE ITAPOAN,PAULINIA,-22.7603585,-47.14331691,Via pública,BO PARA INVESTIGAÇÃO,DEL.POL.PAULINIA,DEL.POL.PAULINIA,Título II - Patrimônio (arts. 155 a 183),Roubo (art. 157) - VEICULO,Consumado,CQJ6A95,SP,PAULINIA,Cinza,1998.0,1998.0,AUTOMOVEL,FIAT,PALIO EX,2,2,6.0,Thursday,1-5
2023,297,02/02/2023 08:32,2023-01-02,1900-01-01 17:30:00,A TARDE,02/02/2023,Desconhecida,Não,Rua Paschoal lobosco,95.0,VILA AYDA,FERRAZ DE VASCONCELOS,-23.5522789,-46.3806915,Via pública,APRECIAÇÃO DO DELEGADO TITULAR,DEL.POL.FERRAZ DE VASCONCELOS,DEL.POL.FERRAZ DE VASCONCELOS,Título II - Patrimônio (arts. 155 a 183),Roubo (art. 157) - VEICULO,Consumado,GAQ4A39,SP,FERRAZ DE VASCONCELO,Branco,2015.0,2016.0,MOTOCICLO,HONDA,CB 250F TWISTER,2,1,17.0,Monday,1-5
2023,188,02/02/2023 08:56,2023-01-30,1900-01-01 08:30:00,PELA MANHÃ,02/02/2023,Desconhecida,Não,Estrada Da Colonia Marinho Remberg Chris,2500.0,JD S GONCALO,S.PAULO,-23.8394854,-46.7195203,Via pública,BO PARA INVESTIGAÇÃO,25º D.P. PARELHEIROS,25º D.P. PARELHEIROS,Título II - Patrimônio (arts. 155 a 183),Roubo (art. 157) - VEICULO,Consumado,FBB0C75,SP,S.PAULO,Prata,2012.0,2013.0,AUTOMOVEL,VW,NOVO GOL 1.0 CITY,30,1,8.0,Monday,26-31
2023,176973,02/02/2023 09:11,2023-01-02,1900-01-01 19:40:00,A NOITE,02/02/2023,Desconhecida,Não,Avenida Miguel Badra,450.0,CIDADE BOA VISTA,SUZANO,-23.5018315,-46.3113044,Via pública,BO PARA INVESTIGAÇÃO,DELEGACIA ELETRONICA,02º D.P. SUZANO,Título II - Patrimônio (arts. 155 a 183),Roubo (art. 157) - VEICULO,Consumado,FUM5E04,SP,SUZANO,Vermelho,2017.0,,MOTOCICLO,YAMAHA,NMAX 160,2,1,19.0,Monday,1-5
2023,273,02/02/2023 09:18,2023-02-02,1900-01-01 04:00:00,DE MADRUGADA,02/02/2023,Desconhecida,Não,Rua Capitão Pedro Esperidião Hoffer,100.0,JARDIM NOVA POA,POA,-23.5542417,-46.3490288,Via pública,BO PARA INVESTIGAÇÃO,DEL.POL.POA,DEL.POL.POA,Título II - Patrimônio (arts. 155 a 183),Roubo (art. 157) - VEICULO,Consumado,RUS5I79,MG,BELO HORIZONTE,Cinza,2022.0,2023.0,AUTOMOVEL,HYUNDAI,HB20 10M COMFORT,2,2,4.0,Thursday,1-5
2023,541,02/02/2023 09:27,2023-02-02,1900-01-01 07:40:00,PELA MANHÃ,02/02/2023,Desconhecida,Não,Avenida Vila Ema,1159.0,VILA EMA,S.PAULO,-23.5808331,-46.561134,Via pública,ENCAMINHAMENTO DP ÁREA DO FATO,56º D.P. VILA ALPINA,29º D.P. VILA PRUDENTE,Título II - Patrimônio (arts. 155 a 183),Roubo (art. 157) - VEICULO,Consumado,FHJ3347,SP,S.PAULO,Preta,2013.0,2014.0,AUTOMOVEL,I,RENAULT CLIO EXP1016VH,2,2,7.0,Thursday,1-5
2023,164630,02/02/2023 09:29,2023-01-30,1900-01-01 20:30:00,A NOITE,30/01/2023,Desconhecida,Não,Rua Pero Leão,109.0,PINHEIROS,S.PAULO,-23.5733891,-46.7018014,Via pública,BO PARA INVESTIGAÇÃO,DELEGACIA ELETRONICA,34º D.P. MORUMBI,Título II - Patrimônio (arts. 155 a 183),Roubo (art. 157) - VEICULO,Consumado,FEN6D83,SP,S.PAULO,Azul,2012.0,,MOTOCICLO,YAMAHA,XT660Z TENERE,30,1,20.0,Monday,26-31
2023,177079,02/02/2023 09:29,2023-02-02,1900-01-01 06:30:00,PELA MANHÃ,02/02/2023,Desconhecida,Não,RUA ALICE BONFIM DA SILVA,40.0,JARDIM SUMAREZINHO,HORTOLANDIA,-22.88757355,-47.17689859,Via pública,BO PARA INVESTIGAÇÃO,DELEGACIA ELETRONICA,01º D.P. HORTOLÂNDIA,Título II - Patrimônio (arts. 155 a 183),Roubo (art. 157) - VEICULO,Consumado,FHQ3D32,SP,HORTOLANDIA,Branco,2018.0,,AUTOMOVEL,FORD,KA SE 1.0 HA B,2,2,6.0,Thursday,1-5
2023,99,02/02/2023 09:40,2023-01-02,1900-01-01 21:30:00,A NOITE,02/02/2023,Desconhecida,Não,ACESSO RODOVIA DOM GABRIEL PAULINO BUENO,62.0,DISTRITO INDUSTRIAL,JUNDIAI,-23.17231473,-46.93517318,Via pública,ENCAMINHAMENTO DP ÁREA DO FATO,02º D.P. JUNDIAI,05º D.P. JUNDIAI,Título II - Patrimônio (arts. 155 a 183),Roubo (art. 157) - VEICULO,Consumado,QFD4D16,SP,CABREUVA,Azul,2014.0,2014.0,MOTOCICLO,HONDA,CG150 FAN ESDI,2,1,21.0,Monday,1-5
2023,621,02/02/2023 09:51,2023-01-29,1900-01-01 02:00:00,DE MADRUGADA,02/02/2023,Desconhecida,Não,Rua Paulo Roberto Soares,1.0,JARDIM ADELAIDE,HORTOLANDIA,-22.9041718,-47.180643,Via pública,ENCAMINHAMENTO DP ÁREA DO FATO,DEL.POL.PLANTÃO HORTOLÂNDIA,01º D.P. HORTOLÂNDIA,Título II - Patrimônio (arts. 155 a 183),Roubo (art. 157) - VEICULO,Consumado,GCM6A58,SP,HORTOLANDIA,Preta,2015.0,2016.0,MOTOCICLO,HONDA,CB 250F TWISTER,29,1,2.0,Sunday,26-31
2023,391,02/02/2023 10:01,2023-01-02,,A NOITE,02/02/2023,Desconhecida,Não,RUA RAFAEL BARRANCO,38.0,JD PORTELA,ITAPEVI,-23.54614169,-46.94101908,Via pública,APRECIAÇÃO DO DELEGADO TITULAR,DEL.POL.ITAPEVI,DEL.POL.ITAPEVI,Título II - Patrimônio (arts. 155 a 183),Roubo (art. 157) - VEICULO,Consumado,DLG4C28,SP,ITAPEVI,Azul,2020.0,2020.0,MOTOCICLO,HONDA,CG 160 TITAN,2,1,,Monday,1-5
2023,125,02/02/2023 10:10,2023-02-02,1900-01-01 01:00:00,DE MADRUGADA,02/02/2023,Desconhecida,Não,ESTRADA DO ELENCO,1200.0,TABOAO,GUARULHOS,-23.41486864,-46.4951506,Via pública,BO PARA INVESTIGAÇÃO,09º D.P. GUARULHOS,09º D.P. GUARULHOS,Título II - Patrimônio (arts. 155 a 183),Roubo (art. 157) - VEICULO,Consumado,FKQ1J37,SP,S.PAULO,Vermelho,2022.0,2022.0,MOTOCICLO,HONDA,CG 160 FAN,2,2,1.0,Thursday,1-5
2023,308,02/02/2023 10:17,2023-02-02,1900-01-01 07:00:00,PELA MANHÃ,02/02/2023,Desconhecida,Não,Rua Giovanni Thomé,70.0,OLÍMPICO,S.CAETANO DO SUL,-23.6237643,-46.5611179,Via pública,ENCAMINHAMENTO DP ÁREA DO FATO,02º D.P. S.BERNARDO DO CAMPO,02º D.P. S.CAETANO DO SUL,Título II - Patrimônio (arts. 155 a 183),Roubo (art. 157) - VEICULO,Consumado,AYY1F57,SP,S.ANDRE,Verde,2014.0,2015.0,MOTOCICLO,TRIUMPH,TIGER 800XC,2,2,7.0,Thursday,1-5
2023,992,02/02/2023 10:20,2023-01-02,,PELA MANHÃ,02/02/2023,Desconhecida,Não,RUA PROFESSOR ENEAS DE SIQUEIRA NETO,225.0,CIDADE DUTRA,S.PAULO,-23.73051929,-46.70988823,Via pública,BO PARA INVESTIGAÇÃO,101º D.P. JDIM IMBUIAS,101º D.P. JDIM IMBUIAS,Título II - Patrimônio (arts. 155 a 183),Roubo (art. 157) - VEICULO,Consumado,DCU2E66,SP,S.PAULO,Branco,2020.0,2021.0,CAMINHONETE,FIAT,FIORINO ENDURANCE,2,1,,Monday,1-5
2023,993,02/02/2023 10:26,2023-01-02,,PELA MANHÃ,02/02/2023,Desconhecida,Não,RUA PROFESSOR ENEAS DE SIQUEIRA NETO,225.0,CIDADE DUTRA,S.PAULO,-23.73051929,-46.70988823,Via pública,BO PARA INVESTIGAÇÃO,101º D.P. JDIM IMBUIAS,101º D.P. JDIM IMBUIAS,Título II - Patrimônio (arts. 155 a 183),Roubo (art. 157) - VEICULO,Consumado,DCU2E66,SP,S.PAULO,Branco,2020.0,2021.0,CAMINHONETE,FIAT,FIORINO ENDURANCE,2,1,,Monday,1-5
2023,613,02/02/2023 10:38,2023-01-29,1900-01-01 06:18:00,PELA MANHÃ,02/02/2023,Ignorado,Não,RUA HERBART,47.0,LAPA,S.PAULO,-23.51982506,-46.70151785,Comércio e serviços,ENCAMINHAMENTO DP ÁREA DO FATO,91º D.P. CEASA,07º D.P. LAPA,Título II - Patrimônio (arts. 155 a 183),Roubo (art. 157) - VEICULO,Consumado,EYN7J07,SP,S.PAULO,Preta,2011.0,2012.0,AUTOMOVEL,RENAULT,SANDERO EXP 16,29,1,6.0,Sunday,26-31
2023,177519,02/02/2023 10:44,2023-01-02,1900-01-01 18:35:00,A NOITE,02/02/2023,Desconhecida,Não,Rua Belarmino Francisco Vasconcelos,134.0,BAETA NEVES,S.BERNARDO DO CAMPO,-23.6985272,-46.535644,Via pública,BO PARA INVESTIGAÇÃO,DELEGACIA ELETRONICA,06º D.P. S.BERNARDO DO CAMPO,Título II - Patrimônio (arts. 155 a 183),Roubo (art. 157) - VEICULO,Consumado,OJN5D78,SP,PERUIBE,Branco,2013.0,,,I,LR EVOQUE DYNAMIC 5D,2,1,18.0,Monday,1-5
2023,69,02/02/2023 10:53,2023-01-22,1900-01-01 00:15:00,DE MADRUGADA,02/02/2023,Desconhecida,Não,RUA OIGRES DUARTE,80.0,BRASILANDIA,S.PAULO,-23.45566277,-46.70421864,Via pública,APRECIAÇÃO DO DELEGADO TITULAR,74º D.P. PARADA TAIPAS,74º D.P. PARADA TAIPAS,Título II - Patrimônio (arts. 155 a 183),Roubo (art. 157) - VEICULO,Consumado,DUF3B97,SP,S.PAULO,Preta,2022.0,2022.0,MOTOCICLO,YAMAHA,YS150 FAZER SED,22,1,0.0,Sunday,21-25
2023,385,02/02/2023 10:55,2023-01-02,1900-01-01 13:30:00,A TARDE,02/02/2023,Desconhecida,Não,RUA JACARANDÁ,19.0,JD ODETE,ITAQUAQUECETUBA,-23.46943239,-46.33195569,Via pública,ENCAMINHAMENTO DP ÁREA DO FATO,DEL.POL.CAMPO LIMPO PAULISTA,DEL.POL.ITAQUAQUECETUBA,Título II - Patrimônio (arts. 155 a 183),Roubo (art. 157) - VEICULO,Consumado,BXD3330,SP,CAMPO LIMPO PAULISTA,Branco,2019.0,2019.0,CAMINHÃO TRATOR,M.BENZ,ACTROS 2546LS,2,1,13.0,Monday,1-5
2023,373,02/02/2023 11:08,2023-01-30,1900-01-01 08:20:00,PELA MANHÃ,31/01/2023,Desconhecida,Não,RUA INDUBEL,500.0,CUMBICA,GUARULHOS,-23.43443201,-46.45203814,Via pública,APRECIAÇÃO DO DELEGADO TITULAR,07º D.P. GUARULHOS,03º D.P. GUARULHOS,Título II - Patrimônio (arts. 155 a 183),Roubo (art. 157) - VEICULO,Consumado,GEN8G87,SP,GUARULHOS,Branco,2020.0,2021.0,CAMINHÃO,M.BENZ,ATEGO 3030 CE,30,1,8.0,Monday,26-31
2023,64,02/02/2023 11:37,2023-01-24,1900-01-01 19:30:00,A NOITE,02/02/2023,Desconhecida,Não,Estrada de Sapopemba,1999.0,SÍTIO BELA VISTA,MAUA,-23.6367677,-46.3965107,Via pública,BO PARA INVESTIGAÇÃO,03º D.P. MAUA,03º D.P. MAUA,Título II - Patrimônio (arts. 155 a 183),Roubo (art. 157) - VEICULO,Consumado,FYX0I15,SP,MAUA,Vermelho,2022.0,2023.0,MOTOCICLO,HONDA,CG 160 FAN,24,1,19.0,Tuesday,21-25
2023,244,02/02/2023 11:38,2023-01-28,1900-01-01 19:20:00,A NOITE,02/02/2023,Desconhecida,Não,RUA SAFIRA,293.0,LIBERDADE,S.PAULO,-23.57291477,-46.63318607,Via pública,APRECIAÇÃO DO DELEGADO TITULAR,06º D.P. CAMBUCI,06º D.P. CAMBUCI,Título II - Patrimônio (arts. 155 a 183),Roubo (art. 157) - VEICULO,Consumado,SEA1E44,PR,CURITIBA,Cinza,2022.0,2023.0,AUTOMOVEL,VW,NIVUS HL TSI,28,1,19.0,Saturday,26-31
2023,148,02/02/2023 11:39,2023-01-02,1900-01-01 03:25:00,DE MADRUGADA,02/02/2023,Desconhecida,Não,RUA PAULA BUENO,2935.0,CENTRO,MOGI GUACU,-22.37150407,-46.94112903,Via pública,ENCAMINHAMENTO DP ÁREA DO FATO,DEL.POL.DESCALVADO,01º D.P. MOGI GUAÇU,Título II - Patrimônio (arts. 155 a 183),Roubo (art. 157) - VEICULO,Consumado,FED6405,SP,DESCALVADO,Prata,2018.0,2018.0,CAMINHÃO TRATOR,VOLVO,FH 540 6X4T,2,1,3.0,Monday,1-5
2023,517,02/02/2023 11:40,2023-01-26,1900-01-01 21:35:00,A NOITE,02/02/2023,Desconhecida,Não,RUA ANDRÉ MAGINI,244.0,VILA MAGINI,MAUA,-23.65843232,-46.45705639,Via pública,BO PARA REGISTRO,01º DP MAUA-DR.ALFREDO GARBINO,01º DP MAUA-DR.ALFREDO GARBINO,Título II - Patrimônio (arts. 155 a 183),Roubo (art. 157) - VEICULO,Consumado,GIJ4G36,SP,MAUA,Vermelho,2022.0,2023.0,MOTOCICLO,HONDA,CG 160 TITAN,26,1,21.0,Thursday,26-31
2023,133,02/02/2023 11:54,2023-01-02,1900-01-01 17:10:00,A TARDE,02/02/2023,Desconhecida,Não,AVENIDA COMENDADOR ALADINO SELMI,4720.0,JD STA MONICA,CAMPINAS,-22.85179261,-47.11433253,Via pública,APRECIAÇÃO DO DELEGADO TITULAR,06º D.P. CAMPINAS,03º D.P. CAMPINAS,Título II - Patrimônio (arts. 155 a 183),Roubo (art. 157) - VEICULO,Consumado,DGM6389,SP,CAMPINAS,Azul,2003.0,2003.0,MOTOCICLO,HONDA,NX-4 FALCON,2,1,17.0,Monday,1-5
2023,330,02/02/2023 12:00,2023-10-01,1900-01-01 21:28:00,A NOITE,02/02/2023,Desconhecida,Não,RUA SERGIPE,337.0,CAMPOS ELISEOS,RIBEIRAO PRETO,-21.16856029,-47.81053689,Via pública,APRECIAÇÃO DO DELEGADO TITULAR,CPJ INTEGRADA RIB. PRETO,02º D.P. RIBEIRAO PRETO,Título II - Patrimônio (arts. 155 a 183),Roubo (art. 157) - VEICULO,Consumado,FXP9E35,SP,RIBEIRAO PRETO,Cinza,2022.0,2023.0,AUTOMOVEL,HONDA,CITY TOURING,1,10,21.0,Sunday,1-5
2023,449,02/02/2023 12:04,2023-02-02,1900-01-01 07:45:00,PELA MANHÃ,02/02/2023,Desconhecida,Não,RUA LUÍS FERREIRA DA SILVA,538.0,ANCHIETA,S.BERNARDO DO CAMPO,-23.68119487,-46.56287187,Via pública,BO PARA INVESTIGAÇÃO,01º D.P. S.B.C-DR OMAR CASSIM,02º D.P. S.BERNARDO DO CAMPO,Título II - Patrimônio (arts. 155 a 183),Roubo (art. 157) - VEICULO,Consumado,EXH4E42,SP,S.PAULO,Preta,2012.0,2012.0,MOTOCICLO,KAWASAKI,VERSYS,2,2,7.0,Thursday,1-5
2023,322,02/02/2023 12:06,2023-02-02,,DE MADRUGADA,02/02/2023,Desconhecida,Não,Rodovia Anhanguera,182.0,RURAL,LEME,-22.1342479,-47.4098711,Rodovia/Estrada,ENCAMINHAMENTO DP ÁREA DO FATO,DEL.POL.EMBU DAS ARTES,01º D.P. LEME,Título II - Patrimônio (arts. 155 a 183),Roubo (art. 157) - VEICULO,Consumado,PVV0299,MG,EXTREMA,Cinza,2015.0,2015.0,SEMI-REBOQUE,SR,GUERRA AG SI,2,2,,Thursday,1-5
2023,499,02/02/2023 12:12,2023-01-30,1900-01-01 20:20:00,A NOITE,02/02/2023,Desconhecida,Não,Rua Finlândia,100.0,ESTÂNCIA SÃO JOSÉ,PERUIBE,-24.2792448,-46.9701821,Via pública,ENCAMINHAMENTO DP ÁREA DO FATO,DEL.POL.PERUIBE,01º D.P. PERUIBE,Título II - Patrimônio (arts. 155 a 183),Roubo (art. 157) - VEICULO,Consumado,ECI9J19,SP,S.PAULO,Prata,2020.0,2021.0,MOTOCICLO,HONDA,CG 160 FAN,30,1,20.0,Monday,26-31
2023,141,02/02/2023 12:20,2023-01-02,1900-01-01 22:00:00,A NOITE,02/02/2023,Desconhecida,Não,Avenida Mitsuzo Kondo,0.0,DISTRITO INDUSTRIAL,JUNDIAI,-23.1720738,-46.9306466,Comércio e serviços,BO PARA INVESTIGAÇÃO,05º D.P. JUNDIAI,05º D.P. JUNDIAI,Título II - Patrimônio (arts. 155 a 183),Roubo (art. 157) - VEICULO,Consumado,EBR9720,SP,S.BERNARDO DO CAMPO,Prata,2019.0,2020.0,CAMINHÃO TRATOR,VOLVO,FH 540 6X4T,2,1,22.0,Monday,1-5
2023,33151,02/02/2023 12:32,2023-01-30,1900-01-01 22:30:00,A NOITE,30/01/2023,Desconhecida,Não,RUA DA PASSAGEM FUNDA,544.0,GUAIANASES,S.PAULO,-23.55499647,-46.41297178,Via pública,ENCAMINHAMENTO DP ÁREA DO FATO,DELEGACIA ELETRONICA 1,44º D.P. GUAIANAZES,Título II - Patrimônio (arts. 155 a 183),Roubo (art. 157) - VEICULO,Consumado,EXO8J57,SP,S.PAULO,Preta,2022.0,2022.0,MOTOCICLO,HONDA,CG 160 FAN,30,1,22.0,Monday,26-31
2023,178009,02/02/2023 12:34,2023-01-02,1900-01-01 20:20:00,A NOITE,02/02/2023,Desconhecida,Não,AVENIDA DOUTOR ASSIS RIBEIRO,1098.0,CANGAIBA,S.PAULO,-23.50628568,-46.54134822,Via pública,BO PARA INVESTIGAÇÃO,DELEGACIA ELETRONICA,10º D.P. PENHA DE FRANCA,Título II - Patrimônio (arts. 155 a 183),Roubo (art. 157) - VEICULO,Consumado,DAS2J37,SP,S.PAULO,Azul,2022.0,,MOTOCICLO,YAMAHA,MT03 ABS,2,1,20.0,Monday,1-5
2023,171,02/02/2023 12:35,2023-02-02,,PELA MANHÃ,02/02/2023,Desconhecida,Não,RUA MARCELINO PÍRES BARBOSA,106.0,JD IPAUSSURAMA,CAMPINAS,-22.92887162,-47.12487089,Via pública,BO PARA REGISTRO,11º D.P. CAMPINAS,02º D.P. CAMPINAS,Título II - Patrimônio (arts. 155 a 183),Roubo (art. 157) - VEICULO,Consumado,FPX9I31,SP,CAMPINAS,Cinza,2019.0,2020.0,CAMINHONETE,I,TOYOTA HILUX CDSRV4FD,2,2,,Thursday,1-5
2023,484,02/02/2023 12:43,2023-02-02,1900-01-01 09:00:00,PELA MANHÃ,02/02/2023,Desconhecida,Não,RUA CONDE DE PORTO ALEGRE,60.0,CAMPO BELO,S.PAULO,-23.62574489,-46.6769073,Via pública,APRECIAÇÃO DO DELEGADO TITULAR,"27º DP ""DR. IGNÁCIO FRANCISCO""","27º DP ""DR. IGNÁCIO FRANCISCO""",Título II - Patrimônio (arts. 155 a 183),Roubo (art. 157) - VEICULO,Consumado,FFA3I15,SP,S.PAULO,Preta,2020.0,2021.0,AUTOMOVEL,HYUNDAI,CRETA 16A ATTITU,2,2,9.0,Thursday,1-5
2023,108,02/02/2023 12:47,2023-02-02,1900-01-01 07:30:00,PELA MANHÃ,02/02/2023,Desconhecida,Não,ESTRADA DAS LAVRAS,26.0,ESNTÂNCIA SÃO LUIZ,SUZANO,-23.64299497,-46.33750184,Via pública,BO PARA INVESTIGAÇÃO,01º D.P. SUZANO,01º D.P. SUZANO,Título II - Patrimônio (arts. 155 a 183),Roubo (art. 157) - VEICULO,Consumado,PYZ2957,SP,S.PAULO,Prata,2017.0,2017.0,AUTOMOVEL,CHEV,SPIN 1.8L AT LTZ,2,2,7.0,Thursday,1-5
2023,130,02/02/2023 12:50,2022-12-31,1900-01-01 08:37:00,PELA MANHÃ,02/01/2023,Desconhecida,Não,ALAMEDA FLORIANÓPOLIS,287.0,BOM RETIRO,JARINU,-23.09216008,-46.71961917,Via pública,APRECIAÇÃO DO DELEGADO TITULAR,DEL.POL.JARINU,DEL.POL.JARINU,Título II - Patrimônio (arts. 155 a 183),Roubo (art. 157) - VEICULO,Consumado,FOE3D06,SP,JARINU,Vermelho,2022.0,2022.0,MOTOCICLO,TRIUMPH,TIGER SPORT,31,12,8.0,Saturday,
2023,482,02/02/2023 12:51,2023-01-31,1900-01-01 21:30:00,A NOITE,02/02/2023,Desconhecida,Não,Rua Mateos Demarchi,181.0,JARDIM DAS QUATRO MARIAS,S.BERNARDO DO CAMPO,-23.7391656,-46.5562966,Via pública,BO PARA INVESTIGAÇÃO,03º D.P. S.BERNARDO DO CAMPO,03º D.P. S.BERNARDO DO CAMPO,Título II - Patrimônio (arts. 155 a 183),Roubo (art. 157) - VEICULO,Consumado,RUI0B16,MG,BELO HORIZONTE,Branco,2022.0,2023.0,AUTOMOVEL,I,PEUGEOT 208 ACTIVE AT1,31,1,21.0,Tuesday,
2023,771,02/02/2023 13:13,2022-07-23,1900-01-01 20:00:00,A NOITE,02/02/2023,Desconhecida,Não,RUA SANTANESIA,754.0,BUTANTA,S.PAULO,-23.57529151,-46.71719739,Via pública,ENCAMINHAMENTO DP ÁREA DO FATO,16º D.P. VILA CLEMENTINO,34º D.P. MORUMBI,Título II - Patrimônio (arts. 155 a 183),Roubo (art. 157) - VEICULO,Consumado,KPR9A70,SP,ITAPECERICA DA SERRA,Preta,2013.0,2014.0,MOTOCICLO,TRIUMPH,TIGER 800,23,7,20.0,Saturday,21-25
2023,178282,02/02/2023 13:16,2023-02-02,1900-01-01 09:00:00,PELA MANHÃ,02/02/2023,Desconhecida,Não,Avenida André Cavalcanti,735.0,CONJUNTO HABITACIONAL A E CARVALHO,S.PAULO,,,Via pública,BO PARA INVESTIGAÇÃO,DELEGACIA ELETRONICA,64º D.P. CID.AE CARVALHO,Título II - Patrimônio (arts. 155 a 183),Roubo (art. 157) - VEICULO,Consumado,GGN8F29,SP,S.PAULO,Branco,2018.0,,MOTOCICLO,HONDA,CG 125I CARGO,2,2,9.0,Thursday,1-5
2023,142,02/02/2023 13:34,2023-02-02,1900-01-01 00:00:00,DE MADRUGADA,02/02/2023,Desconhecida,Não,Rodovia dos Bandeirantes,0.0,DISTRITO INDUSTRIAL,JUNDIAI,-23.149897,-46.9618777,Rodovia/Estrada,APRECIAÇÃO DO DELEGADO TITULAR,05º D.P. JUNDIAI,05º D.P. JUNDIAI,Título II - Patrimônio (arts. 155 a 183),Roubo (art. 157) - VEICULO,Consumado,CUM1D19,SP,SOROCABA,Preta,2020.0,2021.0,REBOQUE,R,ALFASTEEL REBASDY 2E,2,2,0.0,Thursday,1-5
2023,485,02/02/2023 13:37,2023-02-02,1900-01-01 09:00:00,PELA MANHÃ,02/02/2023,Desconhecida,Não,RUA CONDE DE PORTO ALEGRE,60.0,CAMPO BELO,S.PAULO,-23.62574489,-46.6769073,Via pública,APRECIAÇÃO DO DELEGADO TITULAR,"27º DP ""DR. IGNÁCIO FRANCISCO""","27º DP ""DR. IGNÁCIO FRANCISCO""",Título II - Patrimônio (arts. 155 a 183),Roubo (art. 157) - VEICULO,Consumado,FFA3I15,SP,S.PAULO,Preta,2020.0,2021.0,AUTOMOVEL,HYUNDAI,CRETA 16A ATTITU,2,2,9.0,Thursday,1-5
2023,872,02/02/2023 14:34,2023-01-19,1900-01-01 11:10:00,PELA MANHÃ,02/02/2023,Desconhecida,Não,RODOVIA SP 323,10.0,MONTE ALTO,MONTE ALTO,-21.33561329,-48.48768611,Rodovia/Estrada,BO PARA REGISTRO,DEL.SEC.ARARAQUARA PLANTÃO,DEL.POL.MONTE ALTO,Título II - Patrimônio (arts. 155 a 183),Roubo (art. 157) - VEICULO,Consumado,EIG9H97,SP,ARARAQUARA,Prata,2009.0,2009.0,CAMINHONETE,I,TOYOTA HILUX CD4X4 SRV,19,1,11.0,Thursday,16-20
2023,178643,02/02/2023 14:37,2023-02-02,1900-01-01 09:15:00,PELA MANHÃ,02/02/2023,Desconhecida,Não,RUA JABUTICABAL,676.0,AGUA RASA,S.PAULO,-23.56246694,-46.5771523,Outros,BO PARA INVESTIGAÇÃO,DELEGACIA ELETRONICA,57º D.P. PARQUE DA MOOCA,Título II - Patrimônio (arts. 155 a 183),Roubo (art. 157) - VEICULO,Consumado,GCK1A36,SP,GUARULHOS,Cinza,2022.0,,MOTOCICLO,HONDA,XRE 300 ABS,2,2,9.0,Thursday,1-5
2023,338,02/02/2023 14:51,2023-02-02,1900-01-01 12:46:00,A TARDE,02/02/2023,Desconhecida,Não,Rua Teodoro Pereira da Silva,57.0,VILA ANTÔNIO AUGUSTO LUIZ,CACAPAVA,-23.1063165,-45.7139763,Via pública,BO PARA INVESTIGAÇÃO,DEL.POL.CAÇAPAVA,DEL.POL.CAÇAPAVA,Título II - Patrimônio (arts. 155 a 183),Roubo (art. 157) - VEICULO,Consumado,DPO3122,SP,CACAPAVA,Vermelho,2005.0,2006.0,MOTOCICLO,HONDA,CG 150 TITAN KS,2,2,12.0,Thursday,1-5
2023,215,02/02/2023 14:58,2022-11-21,1900-01-01 20:40:00,A NOITE,22/11/2022,Desconhecida,Não,RUA VICENTE AMATO SOBRINHO,826.0,JARAGUA,S.PAULO,-23.44656947,-46.74155776,Via pública,ENCAMINHAMENTO DP ÁREA DO FATO,28º D.P. FREGUESIA DO O,74º D.P. PARADA TAIPAS,Título II - Patrimônio (arts. 155 a 183),Roubo (art. 157) - VEICULO,Consumado,FDT2J34,SP,OSASCO,Preta,2012.0,2012.0,AUTOMOVEL,HONDA,CIVIC LXL,21,11,20.0,Monday,21-25
2023,178810,02/02/2023 15:05,2023-01-02,1900-01-01 00:30:00,DE MADRUGADA,02/02/2023,Desconhecida,Não,RUA ROBERTO MICHELIN,120.0,ANTONIO MARINCEK,RIBEIRAO PRETO,-21.12747128,-47.80802539,Via pública,BO PARA INVESTIGAÇÃO,DELEGACIA ELETRONICA,05º D.P. RIBEIRAO PRETO,Título II - Patrimônio (arts. 155 a 183),Roubo (art. 157) - VEICULO,Consumado,FTD8G08,SP,RIBEIRAO PRETO,Branco,2021.0,,MOTOCICLO,HONDA,CG 160 TITAN S,2,1,0.0,Monday,1-5
2023,983,02/02/2023 15:08,2023-01-31,1900-01-01 22:25:00,A NOITE,31/01/2023,Desconhecida,Não,Rua Oratório,3019.0,PARQUE DAS NAÇÕES,S.ANDRE,-23.6373884,-46.5172774,Via pública,ENCAMINHAMENTO DP ÁREA DO FATO,49º D.P. SAO MATEUS,02º D.P. SANTO ANDRÉ,Título II - Patrimônio (arts. 155 a 183),Roubo (art. 157) - VEICULO,Consumado,FUF5D21,SP,S.PAULO,Vermelho,2021.0,2021.0,MOTOCICLO,HONDA,CG 160 FAN,31,1,22.0,Tuesday,
2023,87,02/02/2023 15:08,2023-01-02,1900-01-01 19:15:00,A NOITE,02/02/2023,Desconhecida,Não,RUA CARLOS LAMARCA,100.0,BRASILANDIA,S.PAULO,-23.46047015,-46.68130958,Via pública,ENCAMINHAMENTO DP ÁREA DO FATO,83º D.P. PARQUE BRISTOL,72º D.P. VILA PENTEADO,Título II - Patrimônio (arts. 155 a 183),Roubo (art. 157) - VEICULO,Consumado,RVT7A62,MG,BELO HORIZONTE,Branco,,,AUTOMOVEL,FIAT,ARGO DRIVE 1.3 AT,2,1,19.0,Monday,1-5
2023,178868,02/02/2023 15:29,2023-02-02,1900-01-01 04:40:00,DE MADRUGADA,02/02/2023,Desconhecida,Não,Travessa Dom Pedro II,3146.0,,FERRAZ DE VASCONCELOS,-23.5599319,-46.3585946,Via pública,BO PARA INVESTIGAÇÃO,DELEGACIA ELETRONICA,DEL.POL.FERRAZ DE VASCONCELOS,Título II - Patrimônio (arts. 155 a 183),Roubo (art. 157) - VEICULO,Consumado,EFH0H97,SP,SUZANO,Preta,2010.0,,MOTOCICLO,HONDA,CG150 TITAN MIX ES,2,2,4.0,Thursday,1-5
2023,440,02/02/2023 15:41,2023-01-24,1900-01-01 15:00:00,A TARDE,24/01/2023,Desconhecida,Não,Rua Antônia Soveral,305.0,CHÁCARA SANTO ANTÔNIO (ZONA LESTE),S.PAULO,-23.5452686,-46.5477109,Via pública,APRECIAÇÃO DO DELEGADO TITULAR,31º D.P. VILA CARRAO,31º D.P. VILA CARRAO,Título II - Patrimônio (arts. 155 a 183),Roubo (art. 157) - VEICULO,Consumado,EXW7I98,SP,S.PAULO,Branco,2020.0,2021.0,AUTOMOVEL,RENAULT,KWID ZEN 10MT,24,1,15.0,Tuesday,21-25
2023,179150,02/02/2023 16:14,2023-02-02,1900-01-01 11:00:00,PELA MANHÃ,02/02/2023,Desconhecida,Não,AVENIDA MUTINGA,4385.0,SAO DOMINGOS,S.PAULO,-23.49828045,-46.75148904,Via pública,BO PARA INVESTIGAÇÃO,DELEGACIA ELETRONICA,33º D.P. PIRITUBA,Título II - Patrimônio (arts. 155 a 183),Roubo (art. 157) - VEICULO,Consumado,FMP4E87,SP,S.PAULO,Cinza,2022.0,,MOTOCICLO,HONDA,PCX 150 ABS,2,2,11.0,Thursday,1-5
2023,179159,02/02/2023 16:27,2023-01-02,1900-01-01 19:00:00,A NOITE,02/02/2023,Desconhecida,Não,RUA JOSÉ BONIFÁCIO,487.0,JD TEMPORIM,FERRAZ DE VASCONCELOS,-23.53961186,-46.356163,Via pública,BO PARA INVESTIGAÇÃO,DELEGACIA ELETRONICA,DEL.POL.FERRAZ DE VASCONCELOS,Título II - Patrimônio (arts. 155 a 183),Roubo (art. 157) - VEICULO,Consumado,FAB6439,SP,POA,Prata,2017.0,,AUTOMOVEL,HYUNDAI,HB20 1.0M COMFOR,2,1,19.0,Monday,1-5
2023,542,02/02/2023 16:49,2023-02-02,1900-01-01 07:40:00,PELA MANHÃ,02/02/2023,Desconhecida,Não,AVENIDA VILA EMA,1159.0,VILA PRUDENTE,S.PAULO,-23.57942026,-46.57243069,Via pública,ENCAMINHAMENTO DP ÁREA DO FATO,56º D.P. VILA ALPINA,56º D.P. VILA ALPINA,Título II - Patrimônio (arts. 155 a 183),Roubo (art. 157) - VEICULO,Consumado,FHJ3347,SP,S.PAULO,Preta,2013.0,2014.0,AUTOMOVEL,I,RENAULT CLIO EXP1016VH,2,2,7.0,Thursday,1-5
2023,179363,02/02/2023 17:07,2023-02-02,1900-01-01 14:20:00,A TARDE,02/02/2023,Desconhecida,Não,RUA CENTRAL DE SANTA HELENA,32.0,SAO MATEUS,S.PAULO,-23.58604278,-46.50056088,Via pública,BO PARA INVESTIGAÇÃO,DELEGACIA ELETRONICA,69º D.P. TEOTONIO VILELA,Título II - Patrimônio (arts. 155 a 183),Roubo (art. 157) - VEICULO,Consumado,FCC4J45,SP,S.PAULO,Branco,2022.0,,AUTOMOVEL,CAOACHERY,TIGGO7 TXS,2,2,14.0,Thursday,1-5
2023,70,02/02/2023 17:35,2023-01-31,1900-01-01 13:54:00,A TARDE,02/02/2023,Desconhecida,Não,Rodovia Prefeito Antônio Duarte Nogueira,319.0,SUBSETOR OESTE - 9 (O-9),RIBEIRAO PRETO,-21.2014976,-47.8691599,Rodovia/Estrada,APRECIAÇÃO DO DELEGADO TITULAR,01º D.P. SÃO CARLOS,06º D.P. RIBEIRAO PRETO,Título II - Patrimônio (arts. 155 a 183),Roubo (art. 157) - VEICULO,Consumado,GDR9A16,SP,S.CARLOS,Branco,2021.0,2022.0,CAMINHONETE,RENAULT,OROCH EXP 16 SCE,31,1,13.0,Tuesday,
2023,1167,02/02/2023 17:41,2023-01-02,1900-01-01 20:18:00,A NOITE,01/02/2023,Conhecida,Não,ESTRADA GUARULHOS-NAZARÉ,4201.0,AEROPORTO,GUARULHOS,-23.43598097,-46.46465021,Via pública,BO PARA REGISTRO,POLICIA MILITAR,03º D.P. GUARULHOS,Título II - Patrimônio (arts. 155 a 183),Roubo (art. 157) - VEICULO,Consumado,PYA9A38,SP,GUARULHOS,Prata,2016.0,2016.0,AUTOMOVEL,CHEV,PRISMA 1.4MT LT,2,1,20.0,Monday,1-5
2023,637,02/02/2023 17:59,2023-02-02,1900-01-01 01:00:00,DE MADRUGADA,02/02/2023,Desconhecida,Não,AVENIDA DESEMBARGADOR DOUTOR EDUARDO CUN,1500.0,VILA CRETI,CARAPICUIBA,-23.52101526,-46.8316348,Via pública,BO PARA INVESTIGAÇÃO,01º D.P. CARAPICUIBA,01º D.P. CARAPICUIBA,Título II - Patrimônio (arts. 155 a 183),Roubo (art. 157) - VEICULO,Consumado,BSX9F26,SP,JANDIRA,Prata,2022.0,2023.0,MOTOCICLO,HONDA,CG 160 FAN,2,2,1.0,Thursday,1-5
2023,179790,02/02/2023 18:38,2023-01-02,1900-01-01 21:40:00,A NOITE,02/02/2023,Desconhecida,Não,RUA DOUTOR AMERICANO,157.0,PARELHEIROS,S.PAULO,-23.84625613,-46.7357466,Via pública,BO PARA INVESTIGAÇÃO,DELEGACIA ELETRONICA,25º D.P. PARELHEIROS,Título II - Patrimônio (arts. 155 a 183),Roubo (art. 157) - VEICULO,Consumado,FZE2E19,SP,S.PAULO,Vermelho,2018.0,,MOTOCICLO,HONDA,CG 160 TITAN,2,1,21.0,Monday,1-5
2023,1037,02/02/2023 19:01,2023-02-02,1900-01-01 15:41:00,A TARDE,02/02/2023,Desconhecida,Não,RUA JORGE DE BARROS,88.0,IGUATEMI,S.PAULO,-23.59557886,-46.44072969,Via pública,BO PARA INVESTIGAÇÃO,49º D.P. SAO MATEUS,49º D.P. SAO MATEUS,Título II - Patrimônio (arts. 155 a 183),Roubo (art. 157) - VEICULO,Consumado,OWY6G63,SP,S.PAULO,Prata,2014.0,2014.0,AUTOMOVEL,HYUNDAI,HB20X 1.6A PREMI,2,2,15.0,Thursday,1-5
2023,175467,02/02/2023 19:04,2023-01-31,1900-01-01 19:15:00,A NOITE,01/02/2023,Desconhecida,Não,Rua Pedrália,80.0,CURSINO,S.PAULO,-23.6032974,-46.6180103,Via pública,APRECIAÇÃO DO DELEGADO TITULAR,DELEGACIA ELETRONICA,16º D.P. VILA CLEMENTINO,Título II - Patrimônio (arts. 155 a 183),Roubo (art. 157) - VEICULO,Consumado,GJN7A85,SP,S.BERNARDO DO CAMPO,Azul,2022.0,,AUTOMOVEL,VW,T CROSS HL TSI AE,31,1,19.0,Tuesday,
2023,179892,02/02/2023 19:05,2023-02-02,1900-01-01 13:26:00,A TARDE,02/02/2023,Desconhecida,Não,Rua dos Jauaranas,18.0,VILA GUACURI,S.PAULO,,,Outros,BO PARA INVESTIGAÇÃO,DELEGACIA ELETRONICA,50º D.P. ITAIM PAULISTA,Título II - Patrimônio (arts. 155 a 183),Roubo (art. 157) - VEICULO,Consumado,EII5H21,SP,DIADEMA,Cinza,2009.0,,MOTOCICLO,HONDA,CG150 TITAN MIXESD,2,2,13.0,Thursday,1-5
2023,34359,02/02/2023 19:18,2022-10-21,1900-01-01 23:00:00,A NOITE,22/10/2022,Desconhecida,Não,Rua Martim Afonso de Souza,456.0,VILA MARIA LUIZA,RIBEIRAO PRETO,-21.15781592,-47.82849336,Via pública,BO PARA REGISTRO,DELEGACIA ELETRONICA 3,03º D.P. RIBEIRAO PRETO,Título II - Patrimônio (arts. 155 a 183),Roubo (art. 157) - VEICULO,Consumado,HIB9B10,SP,RIBEIRAO PRETO,Prata,2008.0,,AUTOMOVEL,FORD,FIESTA SEDAN 1.6,21,10,23.0,Friday,21-25
2023,180080,02/02/2023 20:15,2023-02-02,1900-01-01 14:30:00,A TARDE,02/02/2023,Desconhecida,Não,RUA CAVALCANTE DE LACERDA,122.0,BUTANTA,S.PAULO,-23.57858677,-46.7352969,Via pública,BO PARA INVESTIGAÇÃO,DELEGACIA ELETRONICA,51º D.P. RIO PEQUENO,Título II - Patrimônio (arts. 155 a 183),Roubo (art. 157) - VEICULO,Consumado,GJU5222,SP,S.PAULO,Preta,2018.0,,AUTOMOVEL,NISSAN,KICKS S MT,2,2,14.0,Thursday,1-5
2023,180169,02/02/2023 20:42,2023-02-02,1900-01-01 19:00:00,A NOITE,02/02/2023,Desconhecida,Não,Rua João José Pereira,44.0,JARDIM AERO CONTINENTAL,CAMPINAS,-22.9432632,-47.0933322,Via pública,BO PARA INVESTIGAÇÃO,DELEGACIA ELETRONICA,06º D.P. CAMPINAS,Título II - Patrimônio (arts. 155 a 183),Roubo (art. 157) - VEICULO,Consumado,FIC6465,SP,CAMPINAS,Prata,2013.0,,AUTOMOVEL,HONDA,CIVIC LXR,2,2,19.0,Thursday,1-5
2023,180283,02/02/2023 21:50,2023-02-02,1900-01-01 20:20:00,A NOITE,02/02/2023,Desconhecida,Não,RUA FRANCISCO PESSOA,491.0,VILA ANDRADE,S.PAULO,-23.62790418,-46.74010695,Via pública,BO PARA INVESTIGAÇÃO,DELEGACIA ELETRONICA,89º D.P. JARDIM TABOAO,Título II - Patrimônio (arts. 155 a 183),Roubo (art. 157) - VEICULO,Consumado,GEQ4B16,SP,S.PAULO,Vermelho,2022.0,,MOTOCICLO,HONDA,CB 500X,2,2,20.0,Thursday,1-5
2023,180293,02/02/2023 22:14,2023-02-02,1900-01-01 19:30:00,A NOITE,02/02/2023,Desconhecida,Não,ESTRADA DO PINHEIRINHO,860.0,PERUS,S.PAULO,-23.39692969,-46.74265272,Veículo em movimento,BO PARA INVESTIGAÇÃO,DELEGACIA ELETRONICA,46º D.P. PERUS,Título II - Patrimônio (arts. 155 a 183),Roubo (art. 157) - VEICULO,Consumado,FYV3D86,SP,FRANCISCO MORATO,Prata,2022.0,,MOTOCICLO,HONDA,CG 160 FAN,2,2,19.0,Thursday,1-5
2023,180295,02/02/2023 22:21,2023-02-02,1900-01-01 20:30:00,A NOITE,02/02/2023,Desconhecida,Não,RUA CANDIDO FONTOURA,1000.0,CONCEICAO,S.PAULO,-23.58276457,-46.7946112,Via pública,BO PARA INVESTIGAÇÃO,DELEGACIA ELETRONICA,02º D.P. OSASCO,Título II - Patrimônio (arts. 155 a 183),Roubo (art. 157) - VEICULO,Consumado,GFQ0J06,SP,S.PAULO,Azul,2022.0,,MOTOCICLO,YAMAHA,XTZ250 LANDER,2,2,20.0,Thursday,1-5
2023,180297,02/02/2023 22:27,2023-02-02,1900-01-01 20:30:00,A NOITE,02/02/2023,Desconhecida,Não,Avenida Neuza de Oliveira Pimenta,1.0,JARDIM NOVA SANTA GERTRUDES II,S.GERTRUDES,,,Via pública,BO PARA INVESTIGAÇÃO,DELEGACIA ELETRONICA,DEL.POL.SANTA GERTRUDES,Título II - Patrimônio (arts. 155 a 183),Roubo (art. 157) - VEICULO,Consumado,GDI1A37,SP,S.GERTRUDES,Cinza,2021.0,,MOTOCICLO,HONDA,XRE 300 ABS,2,2,20.0,Thursday,1-5
2023,180299,02/02/2023 22:30,2023-01-02,1900-01-01 22:00:00,A NOITE,02/02/2023,Desconhecida,Não,AVENIDA NELSOM FERREIRA DE SOUZA,100.0,JD MARAJO,CAMPINAS,-22.96016921,-47.16661179,Via pública,BO PARA INVESTIGAÇÃO,DELEGACIA ELETRONICA,09º D.P. CAMPINAS,Título II - Patrimônio (arts. 155 a 183),Roubo (art. 157) - VEICULO,Consumado,DLG5I89,SP,CAMPINAS,Branco,2020.0,,MOTOCICLO,HONDA,CG 160 CARGO,2,1,22.0,Monday,1-5
2023,402,02/02/2023 22:31,2023-02-02,1900-01-01 20:30:00,A NOITE,02/02/2023,Desconhecida,Não,Avenida Raposo Tavares,2496.0,JARAGUÁ,PIRACICABA,-22.7475736,-47.6583156,Via pública,ENCAMINHAMENTO DP ÁREA DO FATO,DEL.SEC.PIRACICABA PLANTÃO,07º D.P. PIRACICABA,Título II - Patrimônio (arts. 155 a 183),Roubo (art. 157) - VEICULO,Consumado,FPY4G67,SP,S.PEDRO,Vermelho,2021.0,2022.0,MOTOCICLO,HONDA,CG 160 TITAN,2,2,20.0,Thursday,1-5
2023,180301,02/02/2023 22:32,2023-02-02,1900-01-01 20:00:00,A NOITE,02/02/2023,Desconhecida,Não,AVENIDA DO CURSINO,1525.0,JARDIM COLINA,S.PAULO,-23.6126293,-46.6176558,Outros,BO PARA INVESTIGAÇÃO,DELEGACIA ELETRONICA,16º D.P. VILA CLEMENTINO,Título II - Patrimônio (arts. 155 a 183),Roubo (art. 157) - VEICULO,Consumado,GJO5H79,SP,S.PAULO,Branco,2020.0,,MOTOCICLO,HONDA,PCX 150 DLX ABS,2,2,20.0,Thursday,1-5
2023,179151,02/02/2023 23:01,2023-02-02,1900-01-01 11:00:00,PELA MANHÃ,02/02/2023,Desconhecida,Não,AVENIDA MUTINGA,4385.0,SAO DOMINGOS,S.PAULO,-23.49828045,-46.75148904,Via pública,BO PARA INVESTIGAÇÃO,DELEGACIA ELETRONICA,33º D.P. PIRITUBA,Título II - Patrimônio (arts. 155 a 183),Roubo (art. 157) - VEICULO,Consumado,FMP4E87,SP,S.PAULO,Cinza,2022.0,,MOTOCICLO,HONDA,PCX 150 ABS,2,2,11.0,Thursday,1-5
2023,662,02/02/2023 23:15,2023-02-02,1900-01-01 13:40:00,A TARDE,02/02/2023,Desconhecida,Não,RUA ARINOS,100.0,INDUSTRIAL ANHANGUERA,OSASCO,-23.48745554,-46.77908209,Via pública,ENCAMINHAMENTO DP ÁREA DO FATO,05º D.P. OSASCO,07º D.P. OSASCO,Título II - Patrimônio (arts. 155 a 183),Roubo (art. 157) - VEICULO,Consumado,NKN6639,GO,GOIATUBA,Cinza,2011.0,2011.0,SEMI-REBOQUE,REB,NOMA SR3E27 CG,2,2,13.0,Thursday,1-5
2023,180352,03/02/2023 00:02,2023-02-02,1900-01-01 21:20:00,A NOITE,02/02/2023,Desconhecida,Não,RUA LANNES,30.0,JABAQUARA,S.PAULO,,,Via pública,BO PARA INVESTIGAÇÃO,DELEGACIA ELETRONICA,35º D.P. JABAQUARA,Título II - Patrimônio (arts. 155 a 183),Roubo (art. 157) - VEICULO,Consumado,GJK9D53,SP,S.PAULO,Branco,2016.0,,AUTOMOVEL,AUDI,Q3 1.4TFSI,2,2,21.0,Thursday,1-5
2023,636,03/02/2023 00:03,2023-02-02,1900-01-01 23:00:00,A NOITE,02/02/2023,Desconhecida,Não,AVENIDA MATIAS BECK,100.0,CIDADE DUTRA,S.PAULO,-23.71211816,-46.68914745,Via pública,ENCAMINHAMENTO DP ÁREA DO FATO,11º D.P. SANTO AMARO,48º D.P. CIDADE DUTRA,Título II - Patrimônio (arts. 155 a 183),Roubo (art. 157) - VEICULO,Consumado,GDO3J18,SP,S.PAULO,Preta,2021.0,2021.0,MOTOCICLO,YAMAHA,FZ25 FAZER,2,2,23.0,Thursday,1-5
2023,631,03/02/2023 00:11,2023-02-02,1900-01-01 23:15:00,A NOITE,02/02/2023,Desconhecida,Não,RUA DELFIM DA COSTA RIBEIRO,18.0,CIDADE ADEMAR,S.PAULO,-23.68042007,-46.66200226,Via pública,ENCAMINHAMENTO DP ÁREA DO FATO,98º D.P. JARDIM MIRIAM,80º D.P. VILA JOANIZA,Título II - Patrimônio (arts. 155 a 183),Roubo (art. 157) - VEICULO,Consumado,FKG0898,SP,S.PAULO,Prata,2017.0,2018.0,AUTOMOVEL,TOYOTA,ETIOS SD PLT15 AT,2,2,23.0,Thursday,1-5
2023,204,03/02/2023 00:26,2023-02-02,1900-01-01 22:07:00,A NOITE,02/02/2023,Desconhecida,Não,Rua Adelar Machado,527.0,JARDIM SANTA ROSA,MATAO,-21.5985992,-48.3891174,Via pública,BO PARA INVESTIGAÇÃO,DEL.POL.MATÃO,DEL.POL.MATÃO,Título II - Patrimônio (arts. 155 a 183),Roubo (art. 157) - VEICULO,Consumado,FWY5I86,SP,MATAO,Azul,2021.0,2022.0,CAMINHONETE,FIAT,TORO ULTRA AT9 4X4,2,2,22.0,Thursday,1-5
2023,180370,03/02/2023 00:53,2023-02-02,1900-01-01 22:20:00,A NOITE,02/02/2023,Desconhecida,Não,RUA DOUTOR MARIO PINTO SERVA,34.0,CASA VERDE,S.PAULO,-23.49411298,-46.66618067,Via pública,BO PARA INVESTIGAÇÃO,DELEGACIA ELETRONICA,40º D.P. VILA STA MARIA,Título II - Patrimônio (arts. 155 a 183),Roubo (art. 157) - VEICULO,Consumado,GBX7C26,SP,S.PAULO,Vermelho,2015.0,,AUTOMOVEL,JEEP,RENEGADE SPORT AT,2,2,22.0,Thursday,1-5
2023,180380,03/02/2023 01:14,2023-02-02,1900-01-01 16:50:00,A TARDE,02/02/2023,Desconhecida,Não,Rua Diogo Ortiz,640.0,VILA ANASTÁCIO,S.PAULO,-23.519224,-46.721031,Via pública,BO PARA INVESTIGAÇÃO,DELEGACIA ELETRONICA,91º D.P. CEASA,Título II - Patrimônio (arts. 155 a 183),Roubo (art. 157) - VEICULO,Consumado,GAJ3788,SP,S.PAULO,Preta,2019.0,,AUTOMOVEL,NISSAN,KICKS S DRCT CVT,2,2,16.0,Thursday,1-5
2023,230,03/02/2023 01:43,2023-02-02,1900-01-01 23:30:00,A NOITE,03/02/2023,Desconhecida,Não,RODOVIA SP 214,1.0,ITARARÉ,EMBU-GUACU,-23.78029728,-46.80749568,Via pública,BO PARA INVESTIGAÇÃO,DEL.POL.EMBU-GUAÇU,DEL.POL.EMBU-GUAÇU,Título II - Patrimônio (arts. 155 a 183),Roubo (art. 157) - VEICULO,Consumado,GCJ9E02,SP,MOGI DAS CRUZES,Branco,2022.0,2023.0,AUTOMOVEL,VW,VOYAGE MPI,2,2,23.0,Thursday,1-5
2023,795,03/02/2023 07:01,2023-03-02,1900-01-01 01:00:00,DE MADRUGADA,03/02/2023,Desconhecida,Não,Rua Joana de Menezes Faro,1.0,SÍTIO PAECARA (VICENTE DE CARVALHO),GUARUJA,-23.9543679,-46.2886733,Via pública,ENCAMINHAMENTO DP ÁREA DO FATO,DEL.POL.GUARUJA,02º D.P. GUARUJA,Título II - Patrimônio (arts. 155 a 183),Roubo (art. 157) - VEICULO,Consumado,FDW9F30,SP,GUARUJA,Vermelho,2012.0,2013.0,AUTOMOVEL,VW,FOX 1.0 GII,2,3,1.0,Thursday,1-5
2023,180875,03/02/2023 07:07,2023-01-02,1900-01-01 22:05:00,A NOITE,03/02/2023,Desconhecida,Não,Estrada Mário covas,300.0,JARDIM AMERICANO,ITAQUAQUECETUBA,,,Via pública,BO PARA INVESTIGAÇÃO,DELEGACIA ELETRONICA,DEL.POL.ITAQUAQUECETUBA,Título II - Patrimônio (arts. 155 a 183),Roubo (art. 157) - VEICULO,Consumado,GKI2D96,SP,SUZANO,Preta,2022.0,,MOTOCICLO,HONDA,CG 160 FAN,2,1,22.0,Monday,1-5
2023,180170,03/02/2023 07:18,2023-02-02,1900-01-01 19:00:00,A NOITE,02/02/2023,Desconhecida,Não,Rua João José Pereira,44.0,JARDIM AERO CONTINENTAL,CAMPINAS,-22.9432632,-47.0933322,Via pública,BO PARA INVESTIGAÇÃO,DELEGACIA ELETRONICA,06º D.P. CAMPINAS,Título II - Patrimônio (arts. 155 a 183),Roubo (art. 157) - VEICULO,Consumado,FIC6465,SP,CAMPINAS,Prata,2013.0,,AUTOMOVEL,HONDA,CIVIC LXR,2,2,19.0,Thursday,1-5
2023,154571,03/02/2023 07:26,2023-01-24,1900-01-01 20:00:00,A NOITE,24/01/2023,Desconhecida,Não,RUA GUIMARAES PASSOS,509.0,VILA MARIANA,S.PAULO,-23.58126501,-46.6321604,Via pública,BO PARA INVESTIGAÇÃO,DELEGACIA ELETRONICA,06º D.P. CAMBUCI,Título II - Patrimônio (arts. 155 a 183),Roubo (art. 157) - VEICULO,Consumado,DPM0034,SP,S.PAULO,Vermelho,2017.0,,AUTOMOVEL,HONDA,HR-V EX CVT,24,1,20.0,Tuesday,21-25
2023,39850,03/02/2023 07:32,2023-01-31,1900-01-01 18:40:00,A NOITE,02/02/2023,Desconhecida,Não,ACESSO RUA MIGUEL DE CAMPOS MELHADO,1.0,JD SÃO JOÃO,CAMPINAS,-23.02783846,-47.12212129,Via pública,BO PARA REGISTRO,DELEGACIA ELETRONICA 3,09º D.P. CAMPINAS,Título II - Patrimônio (arts. 155 a 183),Roubo (art. 157) - VEICULO,Consumado,ERM1289,SP,TABOAO DA SERRA,Branco,2019.0,,AUTOMOVEL,FIAT,TORO FREEDOM AT,31,1,18.0,Tuesday,
2023,486,03/02/2023 08:12,2023-02-02,1900-01-01 07:00:00,PELA MANHÃ,03/02/2023,Conhecida,Não,RUA CIRO COSTA,100.0,JARDIM PIRATININGA,LIMEIRA,-22.55925766,-47.41575994,Via pública,APRECIAÇÃO DO DELEGADO TITULAR,DEL.SEC.LIMEIRA PLANTÃO,01º D.P. LIMEIRA,Título II - Patrimônio (arts. 155 a 183),Roubo (art. 157) - VEICULO,Consumado,DPY5094,SP,AVARE,Azul,2006.0,2006.0,MOTOCICLO,SUNDOWN,MAX 125 SED,2,2,7.0,Thursday,1-5
2023,181501,03/02/2023 09:06,2023-02-02,1900-01-01 21:15:00,A NOITE,03/02/2023,Desconhecida,Não,RUA ANTÔNIO APARECIDO DOMINGUES DA SILVA,126.0,PARQUE VIRGILIO VIEL,SUMARE,-22.81134124,-47.23928874,Veículo em movimento,BO PARA INVESTIGAÇÃO,DELEGACIA ELETRONICA,02º D.P. SUMARE,Título II - Patrimônio (arts. 155 a 183),Roubo (art. 157) - VEICULO,Consumado,FQG4E41,SP,SUMARE,Branco,2014.0,,AUTOMOVEL,FIAT,PUNTO ATTRACTIVE,2,2,21.0,Thursday,1-5
2023,1044,03/02/2023 09:12,2023-01-02,1900-01-01 12:00:00,PELA MANHÃ,03/02/2023,Desconhecida,Não,Rua Luiza de Jesus Ferreira,262.0,JARDIM ROSELI,S.PAULO,-23.5968258,-46.4404268,Via pública,APRECIAÇÃO DO DELEGADO TITULAR,49º D.P. SAO MATEUS,49º D.P. SAO MATEUS,Título II - Patrimônio (arts. 155 a 183),Roubo (art. 157) - VEICULO,Consumado,ESP4G16,SP,S.PAULO,Azul,2022.0,2022.0,CAMINHONETE,IVECO,DAILY 35CS,2,1,12.0,Monday,1-5
2023,181606,03/02/2023 09:29,2023-02-02,1900-01-01 22:25:00,A NOITE,03/02/2023,Desconhecida,Não,ESTRADA PIRAJUSSARA VALO VELHO,600.0,CAMPO LIMPO,S.PAULO,-23.64316574,-46.78305999,Veículo em movimento,BO PARA INVESTIGAÇÃO,DELEGACIA ELETRONICA,47º D.P. CAPAO REDONDO,Título II - Patrimônio (arts. 155 a 183),Roubo (art. 157) - VEICULO,Consumado,GAP8E26,SP,S.PAULO,Branco,2022.0,,MOTOCICLO,HONDA,CG 160 CARGO,2,2,22.0,Thursday,1-5
2023,512,03/02/2023 09:33,2023-01-02,1900-01-01 18:20:00,A NOITE,01/02/2023,Desconhecida,Não,AVENIDA DOS ESTADOS,8000.0,PARQUE CAPUAVA,S.ANDRE,-23.64842027,-46.48902632,Via pública,ENCAMINHAMENTO DP ÁREA DO FATO,01º DP MAUA-DR.ALFREDO GARBINO,02º D.P. SANTO ANDRÉ,Título II - Patrimônio (arts. 155 a 183),Roubo (art. 157) - VEICULO,Consumado,SHB8C07,MG,BELO HORIZONTE,Branco,2022.0,2023.0,AUTOMOVEL,FIAT,ARGO 1.0,2,1,18.0,Monday,1-5
2023,181978,03/02/2023 10:11,2023-03-02,1900-01-01 01:30:00,DE MADRUGADA,03/02/2023,Desconhecida,Não,Rodovia Anhanguera,5974.0,VILA JARAGUÁ,S.PAULO,-23.4432786,-46.786826,Via pública,BO PARA INVESTIGAÇÃO,DELEGACIA ELETRONICA,46º D.P. PERUS,Título II - Patrimônio (arts. 155 a 183),Roubo (art. 157) - VEICULO,Consumado,GAY2C67,SP,TABOAO DA SERRA,Preta,2022.0,,MOTOCICLO,DAFRA,APACHE 200,2,3,1.0,Thursday,1-5
2023,101,03/02/2023 10:14,2023-01-29,1900-01-01 01:40:00,DE MADRUGADA,29/01/2023,Conhecida,Sim,Estrada São José do Rio Pardo | Venerand,1.0,,MOCOCA,-21.485141,-46.9750608,Via pública,BO PARA FLAGRANTE,DEL.SEC.CASA BRANCA,DEL.POL.MOCOCA,Título II - Patrimônio (arts. 155 a 183),Roubo (art. 157) - VEICULO,Consumado,EDJ3A60,SP,MOCOCA,Prata,2008.0,2008.0,AUTOMOVEL,GM,ASTRA HB 4P ADVANTAGE,29,1,1.0,Sunday,26-31
2023,182020,03/02/2023 10:15,2023-02-02,1900-01-01 18:00:00,A NOITE,03/02/2023,Desconhecida,Não,AVENIDA FERRAZ ALVIN,1062.0,CASA GRANDE,DIADEMA,-23.71020279,-46.59784017,Via pública,BO PARA INVESTIGAÇÃO,DELEGACIA ELETRONICA,02º D.P. DIADEMA,Título II - Patrimônio (arts. 155 a 183),Roubo (art. 157) - VEICULO,Consumado,FYK3C17,SP,S.BERNARDO DO CAMPO,Prata,2020.0,,AUTOMOVEL,JEEP,RENEGADE 1.8 AT,2,2,18.0,Thursday,1-5
2023,176,03/02/2023 10:31,2023-03-02,1900-01-01 00:30:00,DE MADRUGADA,03/02/2023,Desconhecida,Não,Rodovia Presidente Dutra,205.0,PARQUE MARINGA,ARUJA,-23.4066103,-46.3353904,Rodovia/Estrada,ENCAMINHAMENTO DP ÁREA DO FATO,DEL.POL.CAJAMAR,DEL.POL.ARUJA,Título II - Patrimônio (arts. 155 a 183),Roubo (art. 157) - VEICULO,Consumado,QRL9C05,ES,ARACRUZ,Branco,2019.0,2019.0,CAMINHÃO TRATOR,M.BENZ,ACTROS 2651S6X4,2,3,0.0,Thursday,1-5
2023,182490,03/02/2023 10:42,2023-03-02,1900-01-01 05:45:00,DE MADRUGADA,03/02/2023,Desconhecida,Não,Avenida Felippo Sturba,820.0,ANHANGUERA,S.PAULO,-23.4455238,-46.7920662,Via pública,BO PARA INVESTIGAÇÃO,DELEGACIA ELETRONICA,46º D.P. PERUS,Título II - Patrimônio (arts. 155 a 183),Roubo (art. 157) - VEICULO,Consumado,GJW7I15,SP,S.PAULO,Azul,2022.0,,MOTOCICLO,YAMAHA,XTZ250 LANDER,2,3,5.0,Thursday,1-5
2023,689,03/02/2023 10:43,2023-01-31,1900-01-01 21:00:00,A NOITE,31/01/2023,Desconhecida,Não,Rua Ângelo Roberto Orsomarso,4.0,,GUARULHOS,-23.4444565,-46.4074882,Via pública,ENCAMINHAMENTO DP ÁREA DO FATO,63º D.P. VILA JACUI,04º D.P. GUARULHOS,Título II - Patrimônio (arts. 155 a 183),Roubo (art. 157) - VEICULO,Consumado,GJK0326,SP,GUARULHOS,Branco,2018.0,2019.0,CAMINHONETE,FIAT,TORO FREEDOM AT,31,1,21.0,Tuesday,
2023,393,03/02/2023 10:57,2023-01-02,1900-01-01 19:00:00,A NOITE,02/02/2023,Desconhecida,Não,,0.0,VILA SÃO PAULO,ITANHAEM,,,Residência,ENCAMINHAMENTO DP ÁREA DO FATO,92º D.P. PQ. SANTO ANTONIO,02º D.P. ITANHAEM,Título II - Patrimônio (arts. 155 a 183),Roubo (art. 157) - VEICULO,Consumado,FVD9F16,SP,S.PAULO,Vermelho,2022.0,2023.0,MOTOCICLO,HONDA,XRE 300 ABS,2,1,19.0,Monday,1-5
2023,138,03/02/2023 11:10,2023-01-02,1900-01-01 00:00:00,DE MADRUGADA,01/02/2023,Desconhecida,Não,Rodovia Deputado Antonio Adib Chammas,38.0,PARANAPIACABA,S.ANDRE,-23.7697585,-46.3527155,Rodovia/Estrada,ENCAMINHAMENTO DP ÁREA DO FATO,DEL.POL.RIO GRANDE DA SERRA,06º D.P. SANTO ANDRÉ,Título II - Patrimônio (arts. 155 a 183),Roubo (art. 157) - VEICULO,Consumado,EEO6D85,SP,RIBEIRAO PIRES,Cinza,2008.0,2009.0,AUTOMOVEL,RENAULT,LOGAN AUT 1016V,2,1,0.0,Monday,1-5
2023,182759,03/02/2023 11:13,2023-02-02,1900-01-01 18:55:00,A NOITE,03/02/2023,Desconhecida,Não,RUA ATIBAIA,523.0,VILA VALPARAÍSO,S.ANDRE,-23.66867981,-46.54833618,Via pública,BO PARA INVESTIGAÇÃO,DELEGACIA ELETRONICA,01º D.P. SANTO ANDRÉ,Título II - Patrimônio (arts. 155 a 183),Roubo (art. 157) - VEICULO,Consumado,FLO3396,SP,MOGI GUACU,Branco,2013.0,,AUTOMOVEL,HYUNDAI,HB20 1.6A 1.6 A,2,2,18.0,Thursday,1-5
2023,384,03/02/2023 11:14,2023-03-02,1900-01-01 10:00:00,PELA MANHÃ,03/02/2023,Desconhecida,Não,RUA ALFREDO BUENO,1.0,JD BERLIM,JAGUARIUNA,-22.7042274,-46.9848946,Via pública,BO PARA INVESTIGAÇÃO,DEL.POL.JAGUARIUNA,DEL.POL.JAGUARIUNA,Título II - Patrimônio (arts. 155 a 183),Roubo (art. 157) - VEICULO,Consumado,GCF4718,SP,JAGUARIUNA,Cinza,2018.0,2018.0,UTILITÁRIO,JEEP,COMPASS LONGITUDE D,2,3,10.0,Thursday,1-5
2023,487,03/02/2023 11:46,2023-03-02,1900-01-01 02:40:00,DE MADRUGADA,03/02/2023,Desconhecida,Não,AVENIDA INDEPENDENCIA,1225.0,CIDADE NOVA,PINDAMONHANGABA,-22.9520709,-45.41083945,Comércio e serviços,APRECIAÇÃO DO DELEGADO TITULAR,04º D.P. GUARULHOS,03º D.P. PINDAMONHANGABA,Título II - Patrimônio (arts. 155 a 183),Roubo (art. 157) - VEICULO,Consumado,QJW9760,SC,ERMO,Branco,,,SEMI-REBOQUE,SR,LIBRELATO CACAENCR 3E,2,3,2.0,Thursday,1-5
2023,182274,03/02/2023 11:54,2023-01-31,1900-01-01 23:00:00,A NOITE,01/02/2023,Desconhecida,Não,RUA CARUBINHA,70.0,CAMPO LIMPO,S.PAULO,-23.61896559,-46.76132414,Via pública,BO PARA INVESTIGAÇÃO,DELEGACIA ELETRONICA,37º D.P. CAMPO LIMPO,Título II - Patrimônio (arts. 155 a 183),Roubo (art. 157) - VEICULO,Consumado,FFA7295,SP,OSASCO,Preta,2015.0,,AUTOMOVEL,CHEV,PRISMA 1.4MT LT,31,1,23.0,Tuesday,
2023,182164,03/02/2023 11:54,2022-11-26,1900-01-01 21:00:00,A NOITE,27/11/2022,Desconhecida,Não,Rua Aliança Liberal,1015.0,VILA BELA ALIANCA,S.PAULO,-23.5226678,-46.7315684,Via pública,BO PARA INVESTIGAÇÃO,DELEGACIA ELETRONICA,91º D.P. CEASA,Título II - Patrimônio (arts. 155 a 183),Roubo (art. 157) - VEICULO,Consumado,QOC8664,SP,S.PAULO,Branco,2018.0,,AUTOMOVEL,CHEVROLET,S10 LT FD2A,26,11,21.0,Saturday,26-31
2023,354,03/02/2023 12:05,2023-02-02,1900-01-01 18:50:00,A NOITE,03/02/2023,Desconhecida,Não,RUA PACAJAS,1.0,BAIRRO PINHEIRINHO,S.ANDRE,-23.67720671,-46.5414366,Via pública,BO PARA INVESTIGAÇÃO,01º D.P. SANTO ANDRÉ,01º D.P. SANTO ANDRÉ,Título II - Patrimônio (arts. 155 a 183),Roubo (art. 157) - VEICULO,Consumado,EOJ0551,SP,BARUERI,Branco,2011.0,2011.0,MOTOCICLO,I,DUCATI MTS 1200S TOUR,2,2,18.0,Thursday,1-5
2023,182220,03/02/2023 12:07,2023-01-28,1900-01-01 05:50:00,DE MADRUGADA,28/01/2023,Desconhecida,Não,AVENIDA MOACI,133.0,MOEMA,S.PAULO,-23.60954494,-46.66618939,Via pública,BO PARA INVESTIGAÇÃO,DELEGACIA ELETRONICA,"27º DP ""DR. IGNÁCIO FRANCISCO""",Título II - Patrimônio (arts. 155 a 183),Roubo (art. 157) - VEICULO,Consumado,FJR5166,SP,S.PAULO,Preta,2016.0,,AUTOMOVEL,I,AUDI Q5 2.0TFSI,28,1,5.0,Saturday,26-31
2023,1429,03/02/2023 12:09,2023-02-02,1900-01-01 16:01:00,A TARDE,03/02/2023,Desconhecida,Não,AVENIDA LÚCIO LUCIANO,0.0,PQ BAURU,BAURU,-22.32242242,-49.02195576,Via pública,BO PARA INVESTIGAÇÃO,DEL.SEC.BAURU PLANTÃO,04º D.P. BAURU,Título II - Patrimônio (arts. 155 a 183),Roubo (art. 157) - VEICULO,Consumado,DWK4E89,SP,PEDERNEIRAS,Vermelho,2020.0,2020.0,MOTOCICLO,HONDA,CG 160 START,2,2,16.0,Thursday,1-5
2023,513,03/02/2023 12:11,2023-02-02,1900-01-01 20:10:00,A NOITE,03/02/2023,Desconhecida,Não,AVENIDA CHICÓ MENDES,244.0,INAMAR,DIADEMA,-23.71120376,-46.61129888,Via pública,ENCAMINHAMENTO DP ÁREA DO FATO,01º D.P. DIADEMA,04º D.P. DIADEMA,Título II - Patrimônio (arts. 155 a 183),Roubo (art. 157) - VEICULO,Consumado,AXJ0E77,SP,DIADEMA,Laranja,2014.0,2014.0,UTILITÁRIO,I,AUDI Q5 2.0TFSI,2,2,20.0,Thursday,1-5
2023,369,03/02/2023 12:12,2023-02-02,1900-01-01 06:30:00,PELA MANHÃ,03/02/2023,Desconhecida,Não,RUA EUCLÍDES XAVIER DE LIMA,248.0,JARDIM PIRATININGA,LIMEIRA,-22.55986398,-47.41312417,Via pública,BO PARA REGISTRO,01º D.P. LIMEIRA,01º D.P. LIMEIRA,Título II - Patrimônio (arts. 155 a 183),Roubo (art. 157) - VEICULO,Consumado,FVA0229,SP,LIMEIRA,Prata,2017.0,2018.0,CAMINHONETE,CHEVROLT,S10 LTZ FD4A,2,2,6.0,Thursday,1-5
2023,344,03/02/2023 12:16,2023-02-02,1900-01-01 10:00:00,PELA MANHÃ,03/02/2023,Desconhecida,Não,Rua São Vicente,121.0,BELA VISTA,S.PAULO,-23.5564814,-46.6491492,Via pública,ENCAMINHAMENTO DP ÁREA DO FATO,03º D.P. S.JOSE RIO PRETO,05º D.P. ACLIMACAO,Título II - Patrimônio (arts. 155 a 183),Roubo (art. 157) - VEICULO,Consumado,GKH0C12,SP,S.JOSE DO RIO PRETO,Cinza,2019.0,2019.0,AUTOMOVEL,I,AUDI RS4 AV 2.9TFSI,2,2,10.0,Thursday,1-5
2023,182163,03/02/2023 12:26,2022-09-11,1900-01-01 21:30:00,A NOITE,10/11/2022,Desconhecida,Não,RUA RIO BONITO,470.0,PARI,S.PAULO,-23.52925292,-46.61700767,Via pública,BO PARA INVESTIGAÇÃO,DELEGACIA ELETRONICA,12º D.P. PARI,Título II - Patrimônio (arts. 155 a 183),Roubo (art. 157) - VEICULO,Consumado,EJC2F98,SP,S.PAULO,Preta,2009.0,,AUTOMOVEL,I,TOYOTA HILUXSW4 SRV4X4,11,9,21.0,Sunday,11-15
2023,378,03/02/2023 12:55,2023-06-01,,DE MADRUGADA,03/02/2023,Desconhecida,Não,RUA TUPINAMBÁ,2.0,JD JOSE SAMPAIO JUNIOR,RIBEIRAO PRETO,-21.14590084,-47.8263069,Via pública,BO PARA REGISTRO,CPJ INTEGRADA RIB. PRETO,05º D.P. RIBEIRAO PRETO,Título II - Patrimônio (arts. 155 a 183),Roubo (art. 157) - VEICULO,Consumado,CWY5C36,SP,RIBEIRAO PRETO,Prata,2000.0,2000.0,MOTOCICLO,HONDA,CG 125 TITAN ES,1,6,,Thursday,1-5
2023,183412,03/02/2023 13:10,2023-01-02,1900-01-01 23:01:00,A NOITE,03/02/2023,Desconhecida,Não,RUA HENRIQUE ADAMUS,46.0,CIDADE TIRADENTES,S.PAULO,-23.56520455,-46.41704988,Veículo em movimento,BO PARA INVESTIGAÇÃO,DELEGACIA ELETRONICA,53º D.P. PARQUE DO CARMO,Título II - Patrimônio (arts. 155 a 183),Roubo (art. 157) - VEICULO,Consumado,BKU1E27,SP,S.PAULO,Azul,2019.0,,MOTOCICLO,YAMAHA,FZ25 FAZER,2,1,23.0,Monday,1-5
2023,288,03/02/2023 13:12,2023-03-02,1900-01-01 10:40:00,PELA MANHÃ,03/02/2023,Desconhecida,Não,Avenida João Marcelino Branco,0.0,VILA DOS ANDRADES,S.PAULO,-23.4761265,-46.6654295,Via pública,ENCAMINHAMENTO DP ÁREA DO FATO,20º D.P. AGUA FRIA,38º D.P. VILA AMALIA,Título II - Patrimônio (arts. 155 a 183),Roubo (art. 157) - VEICULO,Consumado,RUM2F96,MG,BELO HORIZONTE,Prata,2022.0,2023.0,CAMINHONETE,MMC,L200 TRITON HPE D,2,3,10.0,Thursday,1-5
2023,182351,03/02/2023 13:20,2023-02-02,1900-01-01 13:45:00,A TARDE,02/02/2023,Desconhecida,Não,Rodovia Raposo Tavares,200.0,RAPOSO TAVARES,OSASCO,,,Via pública,BO PARA INVESTIGAÇÃO,DELEGACIA ELETRONICA,01º D.P. OSASCO,Título II - Patrimônio (arts. 155 a 183),Roubo (art. 157) - VEICULO,Consumado,BWW4G09,SP,COTIA,Preta,2020.0,,MOTOCICLO,YAMAHA,MT09 ABS,2,2,13.0,Thursday,1-5
2023,1199,03/02/2023 13:25,2023-01-02,1900-01-01 20:18:00,A NOITE,01/02/2023,Conhecida,Não,ESTRADA GUARULHOS-NAZARÉ,4201.0,AEROPORTO,GUARULHOS,-23.43598097,-46.46465021,Via pública,BO PARA REGISTRO,POLICIA MILITAR,07º D.P. GUARULHOS,Título II - Patrimônio (arts. 155 a 183),Roubo (art. 157) - VEICULO,Consumado,PYA9A38,SP,GUARULHOS,Prata,2016.0,2016.0,AUTOMOVEL,CHEV,PRISMA 1.4MT LT,2,1,20.0,Monday,1-5
2023,877,03/02/2023 13:39,2023-03-02,1900-01-01 02:30:00,DE MADRUGADA,03/02/2023,Desconhecida,Não,AVENIDA 36A,251.0,VILA ALEMÃ,RIO CLARO,-22.4107652,-47.5596215,Via pública,APRECIAÇÃO DO DELEGADO TITULAR,DEL.SEC.RIO CLARO PLANTÃO,01º D.P. RIO CLARO,Título II - Patrimônio (arts. 155 a 183),Roubo (art. 157) - VEICULO,Consumado,DVA2090,SP,ARARAS,Prata,2007.0,2008.0,CAMINHONETE,FIAT,STRADA TREK FLEX,2,3,2.0,Thursday,1-5
2023,491,03/02/2023 13:44,2023-02-02,1900-01-01 19:05:00,A NOITE,03/02/2023,Desconhecida,Não,ESTRADA ÁGUA CHATA,600.0,AGUA CHATA,GUARULHOS,-23.44006794,-46.38532323,Via pública,APRECIAÇÃO DO DELEGADO TITULAR,04º D.P. GUARULHOS,04º D.P. GUARULHOS,Título II - Patrimônio (arts. 155 a 183),Roubo (art. 157) - VEICULO,Consumado,MWD5D68,SP,GUARULHOS,Branco,2005.0,2006.0,CAMINHONETE,FIAT,FIORINO IE,2,2,19.0,Thursday,1-5
2023,183594,03/02/2023 13:44,2023-03-02,1900-01-01 05:00:00,DE MADRUGADA,03/02/2023,Desconhecida,Não,RUA PADRE MANUEL LUIS DE VERGUEIRO,452.0,ARICANDUVA,S.PAULO,-23.57338083,-46.51542657,Via pública,BO PARA INVESTIGAÇÃO,DELEGACIA ELETRONICA,41º D.P. VILA RICA,Título II - Patrimônio (arts. 155 a 183),Roubo (art. 157) - VEICULO,Consumado,EQE0E86,SP,S.PAULO,Azul,2011.0,,MOTOCICLO,HONDA,CB 300R,2,3,5.0,Thursday,1-5
2023,36295,03/02/2023 13:54,2023-01-02,1900-01-01 22:49:00,A NOITE,02/02/2023,Desconhecida,Não,AVENIDA CARIOCA,481.0,IPIRANGA,S.PAULO,-23.60151382,-46.58658689,Via pública,ENCAMINHAMENTO DP ÁREA DO FATO,DELEGACIA ELETRONICA 1,17º D.P. DOUTOR ALDO GALIANO,Título II - Patrimônio (arts. 155 a 183),Roubo (art. 157) - VEICULO,Consumado,GCE9535,SP,S.PAULO,Cinza,2015.0,,AUTOMOVEL,I,HONDA HR-V,2,1,22.0,Monday,1-5
2023,66,03/02/2023 14:00,2022-01-24,1900-01-01 20:00:00,A NOITE,25/01/2022,Desconhecida,Não,Rodovia Antônio C Ruete,1.0,,VIRADOURO,-20.880029,-48.2780229,Unidade rural,APRECIAÇÃO DO DELEGADO TITULAR,DEL.POL.VIRADOURO,DEL.POL.VIRADOURO,Título II - Patrimônio (arts. 155 a 183),Roubo (art. 157) - VEICULO,Consumado,BKB6610,SP,VIRADOURO,Branco,2001.0,2001.0,AUTOMOVEL,FIAT,PALIO EX,24,1,20.0,Monday,21-25
2023,82,03/02/2023 14:02,2023-02-02,1900-01-01 16:30:00,A TARDE,03/02/2023,Desconhecida,Não,ALAMEDA VITÓRIAS RÉGIAS,10.0,CECAP,GUARULHOS,-23.45905163,-46.49446864,Via pública,APRECIAÇÃO DO DELEGADO TITULAR,03º D.P. GUARULHOS,03º D.P. GUARULHOS,Título II - Patrimônio (arts. 155 a 183),Roubo (art. 157) - VEICULO,Consumado,EVA7G55,SP,GUARULHOS,Branco,2021.0,2022.0,CAMINHÃO,VW,9.170 DRC 4X2,2,2,16.0,Thursday,1-5
2023,270,03/02/2023 14:05,2023-03-02,1900-01-01 12:10:00,A TARDE,03/02/2023,Desconhecida,Não,RUA ALBUQUERQUE SOUZA MUNIZ,105.0,CAMPO BELO,S.PAULO,-23.63923783,-46.66709177,Via pública,ENCAMINHAMENTO DP ÁREA DO FATO,43º D.P. CIDADE ADEMAR,"27º DP ""DR. IGNÁCIO FRANCISCO""",Título II - Patrimônio (arts. 155 a 183),Roubo (art. 157) - VEICULO,Consumado,GDV5H05,SP,S.PAULO,Azul,2022.0,2023.0,MOTOCICLO,TRIUMPH,TIGER 900 GT PRO,2,3,12.0,Thursday,1-5
2023,183739,03/02/2023 14:10,2023-02-02,1900-01-01 23:30:00,A NOITE,03/02/2023,Desconhecida,Não,Rua Manuel Gaya,919.0,VILA NOVA MAZZEI,S.PAULO,-23.4639252,-46.6007054,Via pública,BO PARA INVESTIGAÇÃO,DELEGACIA ELETRONICA,39º D.P. VILA GUSTAVO,Título II - Patrimônio (arts. 155 a 183),Roubo (art. 157) - VEICULO,Consumado,FUB0F08,SP,S.PAULO,Vermelho,2018.0,,AUTOMOVEL,NISSAN,VERSA 16 SV,2,2,23.0,Thursday,1-5
2023,183775,03/02/2023 14:14,2023-02-02,1900-01-01 20:27:00,A NOITE,03/02/2023,Desconhecida,Não,RUA RAGUNA CABRAL,237.0,CAMBUCI,S.PAULO,-23.57489736,-46.61731039,Via pública,BO PARA INVESTIGAÇÃO,DELEGACIA ELETRONICA,06º D.P. CAMBUCI,Título II - Patrimônio (arts. 155 a 183),Roubo (art. 157) - VEICULO,Consumado,BAO9C38,SP,S.PAULO,Vermelho,2015.0,,AUTOMOVEL,JEEP,RENEGADE LNGTD AT,2,2,20.0,Thursday,1-5
2023,651,03/02/2023 14:21,2023-03-02,1900-01-01 07:00:00,PELA MANHÃ,03/02/2023,Desconhecida,Não,Estrada do M'Boi Mirim,9814.0,PARQUE DO LAGO,S.PAULO,-23.7183375,-46.7844691,Via pública,ENCAMINHAMENTO DP ÁREA DO FATO,11º D.P. SANTO AMARO,100º D.P. JDIM HERCULANO,Título II - Patrimônio (arts. 155 a 183),Roubo (art. 157) - VEICULO,Consumado,KHS7I41,SP,S.PAULO,Branco,2007.0,2007.0,CAMINHÃO,FORD,CARGO 1317 E,2,3,7.0,Thursday,1-5
2023,691,03/02/2023 14:44,2023-01-02,1900-01-01 13:10:00,A TARDE,01/02/2023,Desconhecida,Não,Rodovia Alberto Hinoto,1070.0,JARDIM NOVA ITAQUA,ITAQUAQUECETUBA,-23.4676565,-46.3431046,Via pública,ENCAMINHAMENTO DP ÁREA DO FATO,63º D.P. VILA JACUI,DEL.POL.ITAQUAQUECETUBA,Título II - Patrimônio (arts. 155 a 183),Roubo (art. 157) - VEICULO,Consumado,EJX9D72,SP,JARINU,Branco,2021.0,2022.0,CAMIONETA,I,M.BENZ 416 GUERRA MIS,2,1,13.0,Monday,1-5
2023,184110,03/02/2023 15:01,2023-03-02,1900-01-01 10:00:00,PELA MANHÃ,03/02/2023,Desconhecida,Não,RUA SUÉCIA,900.0,ASSUNÇÃO,S.BERNARDO DO CAMPO,-23.72149279,-46.57572347,Via pública,BO PARA INVESTIGAÇÃO,DELEGACIA ELETRONICA,03º D.P. S.BERNARDO DO CAMPO,Título II - Patrimônio (arts. 155 a 183),Roubo (art. 157) - VEICULO,Consumado,EWB0A39,SP,S.BERNARDO DO CAMPO,Verde,2019.0,,MOTOCICLO,KAWASAKI,Z400,2,3,10.0,Thursday,1-5
2023,182352,03/02/2023 15:02,2023-02-02,1900-01-01 13:45:00,A TARDE,02/02/2023,Desconhecida,Não,Rodovia Raposo Tavares,200.0,RAPOSO TAVARES,OSASCO,,,Via pública,BO PARA INVESTIGAÇÃO,DELEGACIA ELETRONICA,02º D.P. OSASCO,Título II - Patrimônio (arts. 155 a 183),Roubo (art. 157) - VEICULO,Consumado,BWW4G09,SP,COTIA,Preta,2020.0,,MOTOCICLO,YAMAHA,MT09 ABS,2,2,13.0,Thursday,1-5
2023,136,03/02/2023 15:07,2023-03-02,1900-01-01 13:00:00,A TARDE,03/02/2023,Desconhecida,Não,Rua Engenheiro Jaime Pinheiro Ulhôa Cint,816.0,JARDIM BOM RETIRO (NOVA VENEZA),SUMARE,-22.8527108,-47.1890959,Veículo em movimento,BO PARA INVESTIGAÇÃO,05º D.P. SUMARE,05º D.P. SUMARE,Título II - Patrimônio (arts. 155 a 183),Roubo (art. 157) - VEICULO,Consumado,FHE4C24,SP,SUMARE,Branco,2013.0,2014.0,CAMINHONETE,I,RENAULT KGOO EXPRESS16,2,3,13.0,Thursday,1-5
2023,470,03/02/2023 15:41,2023-03-02,1900-01-01 11:00:00,PELA MANHÃ,03/02/2023,Desconhecida,Não,ACESSO RUA SECONDO MODOLIN,85.0,CENTRO,S.BERNARDO DO CAMPO,-23.71334885,-46.55705261,Via pública,APRECIAÇÃO DO DELEGADO TITULAR,01º D.P. S.B.C-DR OMAR CASSIM,01º D.P. S.B.C-DR OMAR CASSIM,Título II - Patrimônio (arts. 155 a 183),Roubo (art. 157) - VEICULO,Consumado,EOD9J18,SP,S.BERNARDO DO CAMPO,Branco,2021.0,2021.0,AUTOMOVEL,CHEV,TRACKER T A,2,3,11.0,Thursday,1-5
2023,143,03/02/2023 15:57,2023-02-02,,PELA MANHÃ,03/02/2023,Desconhecida,Não,TRAVESSA TANTOS CAMINHOS,266.0,IGUATEMI,S.PAULO,-23.61099455,-46.44321741,Via pública,ENCAMINHAMENTO DP ÁREA DO FATO,02º D.P. S.JOSE DOS CAMPOS,49º D.P. SAO MATEUS,Título II - Patrimônio (arts. 155 a 183),Roubo (art. 157) - VEICULO,Consumado,GHA6H35,SP,S.JOSE DOS CAMPOS,Branco,2018.0,2019.0,CAMINHÃO,I,PEUGEOT BOXER BUSIN L3,2,2,,Thursday,1-5
2023,184386,03/02/2023 16:00,2023-02-02,1900-01-01 23:15:00,A NOITE,03/02/2023,Desconhecida,Não,Rua Francisco Antônio Ribeiro,75.0,JARDIM SAUDE,SUZANO,-23.5608795,-46.3377376,Via pública,BO PARA INVESTIGAÇÃO,DELEGACIA ELETRONICA,DEL.POL.SUZANO,Título II - Patrimônio (arts. 155 a 183),Roubo (art. 157) - VEICULO,Consumado,EOU4A48,SP,SUZANO,Preta,2011.0,,MOTOCICLO,HONDA,CG 125 FAN KS,2,2,23.0,Thursday,1-5
2023,206,03/02/2023 16:29,2023-01-28,1900-01-01 17:15:00,A TARDE,30/01/2023,Desconhecida,Não,Rua Luísiana,920.0,VILA SANTA LUZIA,S.BERNARDO DO CAMPO,-23.6630289,-46.6079389,Via pública,ENCAMINHAMENTO DP ÁREA DO FATO,36º D.P. VILA MARIANA,07º D.P. S.BERNARDO DO CAMPO,Título II - Patrimônio (arts. 155 a 183),Roubo (art. 157) - VEICULO,Consumado,EFC1813,SP,S.PAULO,Cinza,2008.0,2009.0,AUTOMOVEL,GM,CLASSIC LIFE,28,1,17.0,Saturday,26-31
2023,139,03/02/2023 16:35,2023-01-22,1900-01-01 20:30:00,A NOITE,03/02/2023,Desconhecida,Não,,0.0,LAJEADO,S.PAULO,,,Residência,BO PARA INVESTIGAÇÃO,68º D.P. LAGEADO,68º D.P. LAGEADO,Título II - Patrimônio (arts. 155 a 183),Roubo (art. 157) - VEICULO,Consumado,FPZ6786,SP,S.PAULO,Vermelho,2015.0,2015.0,AUTOMOVEL,CHEVROLET,ONIX 1.0MT LS,22,1,20.0,Sunday,21-25
2023,488,03/02/2023 17:00,2023-01-02,1900-01-01 23:00:00,A NOITE,02/02/2023,Conhecida,Não,AVENIDA EDUARDO PEIXOTO,609.0,JARDIM NOVA EUROPA,LIMEIRA,-22.5815082,-47.41543932,Via pública,ENCAMINHAMENTO DP ÁREA DO FATO,DEL.SEC.LIMEIRA PLANTÃO,02º D.P. LIMEIRA,Ato infracional,A.I.-Roubo (art. 157) - VEICULO,Consumado,FOT6H55,SP,LIMEIRA,Cinza,2014.0,2014.0,AUTOMOVEL,HONDA,CIVIC LXS,2,1,23.0,Monday,1-5
2023,1042,03/02/2023 17:12,2023-03-02,1900-01-01 13:45:00,A TARDE,03/02/2023,Desconhecida,Não,Avenida Dona Belmira Marin,468.0,PARQUE BRASIL,S.PAULO,-23.7373761,-46.6931886,Via pública,BO PARA INVESTIGAÇÃO,101º D.P. JDIM IMBUIAS,85º D.P. JARDIM MIRNA,Título II - Patrimônio (arts. 155 a 183),Roubo (art. 157) - VEICULO,Consumado,DON5459,SP,S.PAULO,Preta,2006.0,2007.0,UTILITÁRIO,MMC,PAJERO SPORT HPE,2,3,13.0,Thursday,1-5
2023,548,03/02/2023 17:17,2023-03-02,1900-01-01 13:30:00,A TARDE,03/02/2023,Desconhecida,Não,Rodovia Luciano Consoline,0.0,JARDIM DE LUCCA,ITATIBA,-23.0154732,-46.836817,Via pública,APRECIAÇÃO DO DELEGADO TITULAR,DEL.POL.PLANTÃO ITATIBA,01º D.P. ITATIBA,Título II - Patrimônio (arts. 155 a 183),Roubo (art. 157) - VEICULO,Consumado,GJE9783,SP,S.PAULO,Branco,2017.0,2017.0,CAMINHÃO,SCANIA,P 310 B8X2,2,3,13.0,Thursday,1-5
2023,291,03/02/2023 17:19,2023-02-02,1900-01-01 21:30:00,A NOITE,03/02/2023,Desconhecida,Não,AVENIDA LIDER,2524.0,CIDADE LIDER,S.PAULO,-23.55467816,-46.48089954,Via pública,BO PARA INVESTIGAÇÃO,66º D.P. JDIM ARICANDUVA,66º D.P. JDIM ARICANDUVA,Título II - Patrimônio (arts. 155 a 183),Roubo (art. 157) - VEICULO,Consumado,GIE5F98,SP,S.PAULO,Vermelho,2021.0,2021.0,MOTOCICLO,HONDA,POP 110I,2,2,21.0,Thursday,1-5
2023,300,03/02/2023 17:37,2023-03-02,1900-01-01 07:00:00,PELA MANHÃ,03/02/2023,Desconhecida,Não,ALAMEDA DOS GUAIOS,896.0,SAUDE,S.PAULO,-23.62644263,-46.64207191,Via pública,ENCAMINHAMENTO DP ÁREA DO FATO,96º D.P. MONÇÕES,16º D.P. VILA CLEMENTINO,Título II - Patrimônio (arts. 155 a 183),Roubo (art. 157) - VEICULO,Consumado,GBB3D34,SP,S.PAULO,Verde,2022.0,2023.0,UTILITÁRIO,I,VOLVO XC40 6 PLUS,2,3,7.0,Thursday,1-5
2023,71,03/02/2023 17:37,2023-03-02,1900-01-01 12:20:00,A TARDE,03/02/2023,Desconhecida,Não,AVENIDA CIDADE DE ITANHAÉM,125.0,BALNEÁRIO STA EUGÊNIA,MONGAGUA,-24.11594692,-46.67227626,Garagem coletiva de prédio,APRECIAÇÃO DO DELEGADO TITULAR,01º D.P. MONGAGUA,01º D.P. MONGAGUA,Título II - Patrimônio (arts. 155 a 183),Roubo (art. 157) - VEICULO,Consumado,EMJ3B48,SP,S.CARLOS,Preta,2009.0,2010.0,AUTOMOVEL,GM,CELTA 4P LIFE,2,3,12.0,Thursday,1-5
2023,1213,03/02/2023 17:51,2023-02-02,1900-01-01 20:00:00,A NOITE,03/02/2023,Desconhecida,Não,Rua João Sebastião Gomes,144.0,JARDIM DOS OLIVEIRAS,CAMPINAS,-22.9375405,-47.0433636,Via pública,ENCAMINHAMENTO DP ÁREA DO FATO,PLANTÃO - 01 DP CAMPINAS,05º D.P. CAMPINAS,Título II - Patrimônio (arts. 155 a 183),Roubo (art. 157) - VEICULO,Consumado,GAZ3A41,SP,CAMPINAS,Vermelho,2016.0,2016.0,AUTOMOVEL,FORD,KA SE 1.0 HA,2,2,20.0,Thursday,1-5
